[
{"id":"1","name":"Adrar","ar_name":"أدرار","post_code":"1001","wilaya_id":"1","longitude":"-0.264250","latitude":"28.017440"},
{"id":"2","name":"Tamest","ar_name":"تأماست","post_code":"1002","wilaya_id":"1","longitude":"-0.243380","latitude":"27.423744"},
{"id":"3","name":"Charouine","ar_name":"شروين","post_code":"1003","wilaya_id":"49","longitude":"-0.657284","latitude":"29.088744"},
{"id":"4","name":"Reggane","ar_name":"رڨان","post_code":"1004","wilaya_id":"1","longitude":"0.165729","latitude":"26.724265"},
{"id":"5","name":"In Zghmir","ar_name":"ان زغمير","post_code":"1005","wilaya_id":"1","longitude":"-1.404825","latitude":"27.025358"},
{"id":"6","name":"Tit","ar_name":"تــيـــت","post_code":"1006","wilaya_id":"1","longitude":"1.489852","latitude":"26.937329"},
{"id":"7","name":"Ksar Kaddour","ar_name":"قصر قدور","post_code":"1007","wilaya_id":"49","longitude":"0.373508","latitude":"29.582634"},
{"id":"8","name":"Tsabit","ar_name":"تسابيت","post_code":"1008","wilaya_id":"1","longitude":"-0.235770","latitude":"28.400768"},
{"id":"9","name":"Timimoun","ar_name":"تيميمون","post_code":"1009","wilaya_id":"49","longitude":"0.241596","latitude":"29.261691"},
{"id":"10","name":"Ouled Said","ar_name":"أولاد سعيد","post_code":"1010","wilaya_id":"49","longitude":"0.244812","latitude":"29.413617"},
{"id":"11","name":"Zaouiet Kounta","ar_name":"زاوية كنتة","post_code":"1011","wilaya_id":"1","longitude":"-0.189970","latitude":"27.227286"},
{"id":"12","name":"Aoulef","ar_name":"أولف","post_code":"1012","wilaya_id":"1","longitude":"1.081003","latitude":"26.972326"},
{"id":"13","name":"Timekten","ar_name":"تيمقتن","post_code":"1013","wilaya_id":"1","longitude":"1.014336","latitude":"27.021876"},
{"id":"14","name":"Tamantit","ar_name":"تامنطيت","post_code":"1014","wilaya_id":"1","longitude":"-0.269017","latitude":"27.768849"},
{"id":"15","name":"Fenoughil","ar_name":"فنوغيل","post_code":"1015","wilaya_id":"1","longitude":"-0.294983","latitude":"27.563798"},
{"id":"16","name":"Tinerkouk","ar_name":"زاوية دباغ","post_code":"1016","wilaya_id":"49","longitude":"0.711956","latitude":"29.713210"},
{"id":"17","name":"Deldoul","ar_name":"دﻟﺪول","post_code":"1017","wilaya_id":"17","longitude":"0.034714","latitude":"28.814329"},
{"id":"18","name":"Sali","ar_name":"سالى","post_code":"1018","wilaya_id":"1","longitude":"-0.027638","latitude":"26.960922"},
{"id":"19","name":"Akabli","ar_name":"أقبلي","post_code":"1019","wilaya_id":"1","longitude":"1.370952","latitude":"26.712428"},
{"id":"20","name":"Metarfa","ar_name":"المطارفة","post_code":"1020","wilaya_id":"49","longitude":"-0.175426","latitude":"28.902360"},
{"id":"21","name":"Ouled Ahmed Timmi","ar_name":"أولاد أحمد تيمى","post_code":"1021","wilaya_id":"1","longitude":"-0.286420","latitude":"27.840397"},
{"id":"22","name":"Bouda","ar_name":"بودة","post_code":"1022","wilaya_id":"1","longitude":"-0.460560","latitude":"28.028122"},
{"id":"23","name":"Aougrout","ar_name":"أوقروت","post_code":"1023","wilaya_id":"49","longitude":"0.721725","latitude":"28.929810"},
{"id":"24","name":"Talmine","ar_name":"ﻃﺎﻟﻤﻴﻦ","post_code":"1024","wilaya_id":"49","longitude":"-0.901701","latitude":"29.296696"},
{"id":"25","name":"Bordj Badji Mokhtar","ar_name":"برج باجي مختار","post_code":"1025","wilaya_id":"50","longitude":"0.952480","latitude":"21.325510"},
{"id":"26","name":"Sebaa","ar_name":"السبع","post_code":"1026","wilaya_id":"1","longitude":"-0.172781","latitude":"28.203842"},
{"id":"27","name":"Ouled Aissa","ar_name":"أولاد عيسى","post_code":"1027","wilaya_id":"35","longitude":"-0.730319","latitude":"29.642546"},
{"id":"28","name":"Timiaouine","ar_name":"تيمياوين","post_code":"1028","wilaya_id":"50","longitude":"1.807816","latitude":"20.439792"},
{"id":"29","name":"Chlef","ar_name":"الشلف","post_code":"2001","wilaya_id":"2","longitude":"1.337282","latitude":"36.157966"},
{"id":"30","name":"Tenes","ar_name":"تنس","post_code":"2002","wilaya_id":"2","longitude":"1.307823","latitude":"36.508116"},
{"id":"31","name":"Benairia","ar_name":"بنايرية","post_code":"2003","wilaya_id":"2","longitude":"1.373370","latitude":"36.353423"},
{"id":"32","name":"El Karimia","ar_name":"الكريمية","post_code":"2004","wilaya_id":"2","longitude":"1.553563","latitude":"36.111108"},
{"id":"33","name":"Tadjena","ar_name":"تاجنة","post_code":"2005","wilaya_id":"2","longitude":"1.136438","latitude":"36.322659"},
{"id":"34","name":"Taougrite","ar_name":"تاوقريت","post_code":"2006","wilaya_id":"2","longitude":"0.912733","latitude":"36.264354"},
{"id":"35","name":"Beni Haoua","ar_name":"بني حواء","post_code":"2007","wilaya_id":"2","longitude":"1.573661","latitude":"36.528145"},
{"id":"36","name":"Sobha","ar_name":"صبحة","post_code":"2008","wilaya_id":"2","longitude":"1.049037","latitude":"36.117374"},
{"id":"37","name":"Harchoun","ar_name":"حرشون","post_code":"2009","wilaya_id":"2","longitude":"1.505695","latitude":"36.114941"},
{"id":"38","name":"Ouled Fares","ar_name":"أولاد فارس","post_code":"2010","wilaya_id":"2","longitude":"1.234185","latitude":"36.230929"},
{"id":"39","name":"Sidi Akkacha","ar_name":"سيدي عكاشة","post_code":"2011","wilaya_id":"2","longitude":"1.302085","latitude":"36.462521"},
{"id":"40","name":"Boukadir","ar_name":"بوقدير","post_code":"2012","wilaya_id":"2","longitude":"1.130581","latitude":"36.060248"},
{"id":"41","name":"Beni Rached","ar_name":"بني راشد","post_code":"2013","wilaya_id":"2","longitude":"1.521799","latitude":"36.276902"},
{"id":"42","name":"Talassa","ar_name":"تلعصة","post_code":"2014","wilaya_id":"2","longitude":"1.083841","latitude":"36.427852"},
{"id":"43","name":"Herenfa","ar_name":"الهرنفة","post_code":"2015","wilaya_id":"2","longitude":"1.048431","latitude":"36.248430"},
{"id":"44","name":"Oued Goussine","ar_name":"واد ڨوسين","post_code":"2016","wilaya_id":"2","longitude":"1.451764","latitude":"36.491486"},
{"id":"45","name":"Dahra","ar_name":"الظهرة","post_code":"2017","wilaya_id":"2","longitude":"0.850165","latitude":"36.255768"},
{"id":"46","name":"Ouled Abbes","ar_name":"أولاد عباس","post_code":"2018","wilaya_id":"2","longitude":"1.486312","latitude":"36.215137"},
{"id":"47","name":"Sendjas","ar_name":"سنجاس","post_code":"2019","wilaya_id":"2","longitude":"1.399709","latitude":"36.063661"},
{"id":"48","name":"Zeboudja","ar_name":"الزبوجة","post_code":"2020","wilaya_id":"2","longitude":"1.431375","latitude":"36.353359"},
{"id":"49","name":"Oued Sly","ar_name":"واد سلي","post_code":"2021","wilaya_id":"2","longitude":"1.200691","latitude":"36.099474"},
{"id":"50","name":"Abou El Hassan","ar_name":"أبو الحسن","post_code":"2022","wilaya_id":"2","longitude":"1.187127","latitude":"36.419705"},
{"id":"51","name":"El Marsa","ar_name":"المرصى","post_code":"2023","wilaya_id":"2","longitude":"0.915512","latitude":"36.402810"},
{"id":"52","name":"Chettia","ar_name":"الشطية","post_code":"2024","wilaya_id":"2","longitude":"1.256880","latitude":"36.194432"},
{"id":"53","name":"Sidi Abderrahmane","ar_name":"سيدي عبد الرحمان","post_code":"2025","wilaya_id":"2","longitude":"1.094029","latitude":"36.493006"},
{"id":"54","name":"Moussadek","ar_name":"مصدق","post_code":"2026","wilaya_id":"2","longitude":"1.007305","latitude":"36.354371"},
{"id":"55","name":"El Hadjadj","ar_name":"الحجاج","post_code":"2027","wilaya_id":"2","longitude":"1.377395","latitude":"36.017432"},
{"id":"56","name":"Labiod Medjadja","ar_name":"الأبيض مجاجة","post_code":"2028","wilaya_id":"2","longitude":"1.393206","latitude":"36.252056"},
{"id":"57","name":"Oued Fodda","ar_name":"واد الفضة","post_code":"2029","wilaya_id":"2","longitude":"1.532808","latitude":"36.188419"},
{"id":"58","name":"Ouled Ben Abdelkader","ar_name":"أولاد بن عبد القادر","post_code":"2030","wilaya_id":"2","longitude":"1.274525","latitude":"36.023879"},
{"id":"59","name":"Bouzeghaia","ar_name":"بوزغاية","post_code":"2031","wilaya_id":"2","longitude":"1.240543","latitude":"36.338745"},
{"id":"60","name":"Ain Merane","ar_name":"عين مران","post_code":"2032","wilaya_id":"2","longitude":"0.970358","latitude":"36.162014"},
{"id":"61","name":"Oum Drou","ar_name":"أم الذروع","post_code":"2033","wilaya_id":"2","longitude":"1.390320","latitude":"36.197701"},
{"id":"62","name":"Breira","ar_name":"بريرة","post_code":"2034","wilaya_id":"2","longitude":"1.615735","latitude":"36.449125"},
{"id":"63","name":"Beni Bouattab","ar_name":"بني بوعتاب","post_code":"2035","wilaya_id":"2","longitude":"1.619417","latitude":"35.994544"},
{"id":"64","name":"Laghouat","ar_name":"الأغواط","post_code":"3001","wilaya_id":"3","longitude":"2.862829","latitude":"33.807834"},
{"id":"65","name":"Ksar El Hirane","ar_name":"قصر الحيران","post_code":"3002","wilaya_id":"3","longitude":"3.145909","latitude":"33.789316"},
{"id":"66","name":"Benacer Benchohra","ar_name":"بن ناصر بن شهرة","post_code":"3003","wilaya_id":"3","longitude":"2.997559","latitude":"33.754043"},
{"id":"67","name":"Sidi Makhlouf","ar_name":"سيدي مخلوف","post_code":"3004","wilaya_id":"3","longitude":"3.014157","latitude":"34.131475"},
{"id":"68","name":"Hassi Delaa","ar_name":"حاسي دلاعة","post_code":"3005","wilaya_id":"3","longitude":"3.551187","latitude":"33.417346"},
{"id":"69","name":"Hassi R'mel","ar_name":"حاسي الرمل","post_code":"3006","wilaya_id":"3","longitude":"3.271265","latitude":"32.927612"},
{"id":"70","name":"Ain Mahdi","ar_name":"عــيــن مـــاضــي","post_code":"3007","wilaya_id":"3","longitude":"2.307441","latitude":"33.798678"},
{"id":"71","name":"Tadjemout","ar_name":"تاجموت","post_code":"3008","wilaya_id":"3","longitude":"2.526156","latitude":"33.880607"},
{"id":"72","name":"Kheneg","ar_name":"الخنق","post_code":"3009","wilaya_id":"3","longitude":"2.794623","latitude":"33.744802"},
{"id":"73","name":"Gueltat Sidi Saad","ar_name":"قلتة سيدي سعد","post_code":"3010","wilaya_id":"3","longitude":"1.949491","latitude":"34.297815"},
{"id":"74","name":"Ain Sidi Ali","ar_name":"عين سيدي علي","post_code":"3011","wilaya_id":"3","longitude":"1.543123","latitude":"34.156975"},
{"id":"75","name":"Beidha","ar_name":"بيضاء","post_code":"3012","wilaya_id":"3","longitude":"2.171334","latitude":"34.476451"},
{"id":"76","name":"Brida","ar_name":"بريدة","post_code":"3013","wilaya_id":"3","longitude":"1.784574","latitude":"33.906382"},
{"id":"77","name":"El Ghicha","ar_name":"الغيشة","post_code":"3014","wilaya_id":"3","longitude":"2.143749","latitude":"33.930993"},
{"id":"78","name":"Hadj Mechri","ar_name":"الحاج المشري","post_code":"3015","wilaya_id":"3","longitude":"1.599214","latitude":"33.958401"},
{"id":"79","name":"Sebgag","ar_name":"سبقاق","post_code":"3016","wilaya_id":"3","longitude":"1.930271","latitude":"34.029023"},
{"id":"80","name":"Taouiala","ar_name":"تاويالة","post_code":"3017","wilaya_id":"3","longitude":"1.855655","latitude":"33.870060"},
{"id":"81","name":"Tadjrouna","ar_name":"تاجرونة","post_code":"3018","wilaya_id":"3","longitude":"2.103946","latitude":"33.504863"},
{"id":"82","name":"Aflou","ar_name":"أفلو","post_code":"3019","wilaya_id":"3","longitude":"2.097385","latitude":"34.113952"},
{"id":"83","name":"El Assafia","ar_name":"العسافية","post_code":"3020","wilaya_id":"3","longitude":"2.991530","latitude":"33.824988"},
{"id":"84","name":"Oued Morra","ar_name":"وادي مرة","post_code":"3021","wilaya_id":"3","longitude":"2.323379","latitude":"34.164536"},
{"id":"85","name":"Oued M'zi","ar_name":"وادي مزي","post_code":"3022","wilaya_id":"3","longitude":"2.185153","latitude":"34.152300"},
{"id":"86","name":"El Haouaita","ar_name":"الهوارية","post_code":"3023","wilaya_id":"3","longitude":"2.448793","latitude":"33.646466"},
{"id":"87","name":"Sidi Bouzid","ar_name":"سيدي بوزيد","post_code":"3024","wilaya_id":"3","longitude":"2.236175","latitude":"34.297928"},
{"id":"88","name":"Oum El Bouaghi","ar_name":"أم البواقي","post_code":"4001","wilaya_id":"4","longitude":"7.110827","latitude":"35.868879"},
{"id":"89","name":"Ain Beida","ar_name":"عين البيضاء","post_code":"4002","wilaya_id":"4","longitude":"7.390353","latitude":"35.796101"},
{"id":"90","name":"Ain M'lila","ar_name":"عين مليلة","post_code":"4003","wilaya_id":"4","longitude":"6.573786","latitude":"36.034397"},
{"id":"91","name":"Behir Chergui","ar_name":"بحير الشرڨي","post_code":"4004","wilaya_id":"4","longitude":"7.717415","latitude":"35.793390"},
{"id":"92","name":"El Amiria","ar_name":"العامرية","post_code":"4005","wilaya_id":"4","longitude":"6.882055","latitude":"36.111789"},
{"id":"93","name":"Sigus","ar_name":"سيقوس","post_code":"4006","wilaya_id":"4","longitude":"6.788511","latitude":"36.124066"},
{"id":"94","name":"El Belala","ar_name":"البلالة","post_code":"4007","wilaya_id":"4","longitude":"7.788255","latitude":"35.666155"},
{"id":"95","name":"Ain Babouche","ar_name":"عين بابوش","post_code":"4008","wilaya_id":"4","longitude":"7.186873","latitude":"35.941266"},
{"id":"96","name":"Berriche","ar_name":"بريش","post_code":"4009","wilaya_id":"4","longitude":"7.376420","latitude":"35.919183"},
{"id":"97","name":"Ouled Hamla","ar_name":"أولاد حملة","post_code":"4010","wilaya_id":"4","longitude":"6.466406","latitude":"36.082777"},
{"id":"98","name":"Dhala","ar_name":"الضلعة","post_code":"4011","wilaya_id":"4","longitude":"7.548171","latitude":"35.460305"},
{"id":"99","name":"Ain Kercha","ar_name":"عين كرشة","post_code":"4012","wilaya_id":"4","longitude":"6.695971","latitude":"35.924848"},
{"id":"100","name":"Hanchir Toumghani","ar_name":"هنشير تومغني","post_code":"4013","wilaya_id":"4","longitude":"6.736888","latitude":"35.938130"},
{"id":"101","name":"El Djazia","ar_name":"الجازيـــــــة","post_code":"4014","wilaya_id":"4","longitude":"7.510192","latitude":"35.664775"},
{"id":"102","name":"Ain Diss","ar_name":"عين الديس","post_code":"4015","wilaya_id":"4","longitude":"7.053703","latitude":"35.995153"},
{"id":"103","name":"Fkirina","ar_name":"فكرينة","post_code":"4016","wilaya_id":"4","longitude":"7.301406","latitude":"35.667187"},
{"id":"104","name":"Souk Naamane","ar_name":"سوق نعمان","post_code":"4017","wilaya_id":"4","longitude":"6.387833","latitude":"35.898704"},
{"id":"105","name":"Zorg","ar_name":"الزرڨ","post_code":"4018","wilaya_id":"4","longitude":"7.511644","latitude":"35.828796"},
{"id":"106","name":"El Fedjoudj Boughrara Sa","ar_name":"الفجوج بوغرارة سعودى","post_code":"4019","wilaya_id":"4","longitude":"6.820379","latitude":"35.709938"},
{"id":"107","name":"Ouled Zouai","ar_name":"أولاد زواي","post_code":"4020","wilaya_id":"4","longitude":"6.510184","latitude":"35.841770"},
{"id":"108","name":"Bir Chouhada","ar_name":"بئر الشهداء","post_code":"4021","wilaya_id":"4","longitude":"6.290022","latitude":"35.894668"},
{"id":"109","name":"Ksar Sbahi","ar_name":"قصر صباحي","post_code":"4022","wilaya_id":"4","longitude":"7.259687","latitude":"36.083028"},
{"id":"110","name":"Oued Nini","ar_name":"وادي نيني","post_code":"4023","wilaya_id":"4","longitude":"7.348139","latitude":"35.569136"},
{"id":"111","name":"Meskiana","ar_name":"مسكيانة","post_code":"4024","wilaya_id":"4","longitude":"7.666122","latitude":"35.633834"},
{"id":"112","name":"Ain Fekroune","ar_name":"عين فكرون","post_code":"4025","wilaya_id":"4","longitude":"6.873371","latitude":"35.977210"},
{"id":"113","name":"Rahia","ar_name":"الراحية","post_code":"4026","wilaya_id":"4","longitude":"7.644136","latitude":"35.761760"},
{"id":"114","name":"Ain Zitoun","ar_name":"عين الزيتون","post_code":"4027","wilaya_id":"4","longitude":"7.014340","latitude":"35.714983"},
{"id":"115","name":"Ouled Gacem","ar_name":"أولاد ڨاسم","post_code":"4028","wilaya_id":"4","longitude":"6.667046","latitude":"36.033935"},
{"id":"116","name":"El Harmilia","ar_name":"الحرملية","post_code":"4029","wilaya_id":"4","longitude":"6.622843","latitude":"35.924817"},
{"id":"117","name":"Batna","ar_name":"باتنة","post_code":"5001","wilaya_id":"5","longitude":"5.898714","latitude":"35.596595"},
{"id":"118","name":"Ghassira","ar_name":"غسيرة","post_code":"5002","wilaya_id":"5","longitude":"6.226888","latitude":"35.101099"},
{"id":"119","name":"Maafa","ar_name":"معافة","post_code":"5003","wilaya_id":"5","longitude":"5.860942","latitude":"35.290068"},
{"id":"120","name":"Merouana","ar_name":"مروانة","post_code":"5004","wilaya_id":"5","longitude":"5.911871","latitude":"35.629946"},
{"id":"121","name":"Seriana","ar_name":"سريانة","post_code":"5005","wilaya_id":"5","longitude":"6.187974","latitude":"35.697770"},
{"id":"122","name":"Menaa","ar_name":"منعة","post_code":"5006","wilaya_id":"5","longitude":"6.049510","latitude":"35.161671"},
{"id":"123","name":"El Madher","ar_name":"المعذر","post_code":"5007","wilaya_id":"5","longitude":"6.373399","latitude":"35.627419"},
{"id":"124","name":"Tazoult","ar_name":"تازولت","post_code":"5008","wilaya_id":"5","longitude":"6.189000","latitude":"35.563419"},
{"id":"125","name":"N Gaous","ar_name":"نڨاوس","post_code":"5009","wilaya_id":"5","longitude":"5.629620","latitude":"35.547288"},
{"id":"126","name":"Guigba","ar_name":"قيقبة","post_code":"5010","wilaya_id":"5","longitude":"5.590233","latitude":"35.734192"},
{"id":"127","name":"Inoughissen","ar_name":"إينوغيسن","post_code":"5011","wilaya_id":"5","longitude":"6.548974","latitude":"35.304838"},
{"id":"128","name":"Ouyoun El Assafir","ar_name":"عيون العصافير","post_code":"5012","wilaya_id":"5","longitude":"6.307393","latitude":"35.553573"},
{"id":"129","name":"Djerma","ar_name":"جرمة","post_code":"5013","wilaya_id":"5","longitude":"6.307302","latitude":"35.663529"},
{"id":"130","name":"Bitam","ar_name":"بيطام","post_code":"5014","wilaya_id":"5","longitude":"5.374191","latitude":"35.307618"},
{"id":"131","name":"Azil Abedelkader","ar_name":"عزيل عبد القادر","post_code":"5015","wilaya_id":"5","longitude":"5.070472","latitude":"35.501733"},
{"id":"132","name":"Arris","ar_name":"اريس","post_code":"5016","wilaya_id":"5","longitude":"6.345806","latitude":"35.258253"},
{"id":"133","name":"Kimmel","ar_name":"كيمل","post_code":"5017","wilaya_id":"5","longitude":"6.544868","latitude":"35.217567"},
{"id":"134","name":"Tilatou","ar_name":"تيلاطو","post_code":"5018","wilaya_id":"5","longitude":"5.713596","latitude":"35.356930"},
{"id":"135","name":"Ain Djasser","ar_name":"عين جاسر","post_code":"5019","wilaya_id":"5","longitude":"6.003600","latitude":"35.860972"},
{"id":"136","name":"Ouled Sellem","ar_name":"أولاد سلام","post_code":"5020","wilaya_id":"5","longitude":"5.882379","latitude":"35.824651"},
{"id":"137","name":"Tigharghar","ar_name":"تيغرغار","post_code":"5021","wilaya_id":"5","longitude":"5.927971","latitude":"35.113748"},
{"id":"138","name":"Ain Yagout","ar_name":"عين ياقوت","post_code":"5022","wilaya_id":"5","longitude":"6.415402","latitude":"35.777269"},
{"id":"139","name":"Fesdis","ar_name":"فسديس","post_code":"5023","wilaya_id":"5","longitude":"6.247072","latitude":"35.617575"},
{"id":"140","name":"Sefiane","ar_name":"سفيان","post_code":"5024","wilaya_id":"5","longitude":"5.558419","latitude":"35.437887"},
{"id":"141","name":"Rahbat","ar_name":"الرحبات","post_code":"5025","wilaya_id":"5","longitude":"5.655117","latitude":"35.711992"},
{"id":"142","name":"Tighanimine","ar_name":"تيغانمين","post_code":"5026","wilaya_id":"5","longitude":"6.303026","latitude":"35.212473"},
{"id":"143","name":"Lemsane","ar_name":"لمسان","post_code":"5027","wilaya_id":"5","longitude":"5.794649","latitude":"35.654641"},
{"id":"144","name":"Ksar Bellezma","ar_name":"قصر بلازمة","post_code":"5028","wilaya_id":"5","longitude":"5.903323","latitude":"35.676671"},
{"id":"145","name":"Seggana","ar_name":"سقانة","post_code":"5029","wilaya_id":"5","longitude":"5.574368","latitude":"35.365000"},
{"id":"146","name":"Ichmoul","ar_name":"ايشمول","post_code":"5030","wilaya_id":"5","longitude":"6.508885","latitude":"35.310712"},
{"id":"147","name":"Foum Toub","ar_name":"فم الطوب","post_code":"5031","wilaya_id":"5","longitude":"6.549710","latitude":"35.403422"},
{"id":"148","name":"Beni Foudhala El Hakania","ar_name":"بنى فضالة الحقانية","post_code":"5032","wilaya_id":"5","longitude":"6.050448","latitude":"35.387584"},
{"id":"149","name":"Oued El Ma","ar_name":"واد الماء","post_code":"5033","wilaya_id":"5","longitude":"6.024550","latitude":"35.635575"},
{"id":"150","name":"Talkhamt","ar_name":"تالخمت","post_code":"5034","wilaya_id":"5","longitude":"5.715893","latitude":"35.707785"},
{"id":"151","name":"Bouzina","ar_name":"بوزينة","post_code":"5035","wilaya_id":"5","longitude":"6.100709","latitude":"35.268617"},
{"id":"152","name":"Chemora","ar_name":"الشمرة","post_code":"5036","wilaya_id":"5","longitude":"6.642974","latitude":"35.668528"},
{"id":"153","name":"Oued Chaaba","ar_name":"واد الشعبة","post_code":"5037","wilaya_id":"5","longitude":"6.081734","latitude":"35.540059"},
{"id":"154","name":"Taxlent","ar_name":"تاكسلانت","post_code":"5038","wilaya_id":"5","longitude":"5.802438","latitude":"35.605162"},
{"id":"155","name":"Gosbat","ar_name":"القصبات","post_code":"5039","wilaya_id":"5","longitude":"5.459726","latitude":"35.647738"},
{"id":"156","name":"Ouled Aouf","ar_name":"أولاد عوف","post_code":"5040","wilaya_id":"5","longitude":"5.776242","latitude":"35.439052"},
{"id":"157","name":"Boumagueur","ar_name":"بــومقر","post_code":"5041","wilaya_id":"5","longitude":"5.558643","latitude":"35.511986"},
{"id":"158","name":"Barika","ar_name":"بريكة","post_code":"5042","wilaya_id":"5","longitude":"5.370363","latitude":"35.387775"},
{"id":"159","name":"Djezzar","ar_name":"الجزار","post_code":"5043","wilaya_id":"5","longitude":"5.268580","latitude":"35.511776"},
{"id":"160","name":"T Kout","ar_name":"تكوت","post_code":"5044","wilaya_id":"5","longitude":"6.305240","latitude":"35.142611"},
{"id":"161","name":"Ain Touta","ar_name":"عين التوتة","post_code":"5045","wilaya_id":"5","longitude":"5.902013","latitude":"35.380807"},
{"id":"162","name":"Hidoussa","ar_name":"حيدوسة","post_code":"5046","wilaya_id":"5","longitude":"5.937763","latitude":"35.527839"},
{"id":"163","name":"Teniet El Abed","ar_name":"نية العابد","post_code":"5047","wilaya_id":"5","longitude":"6.250727","latitude":"35.283502"},
{"id":"164","name":"Oued Taga","ar_name":"وادي الطاقة","post_code":"5048","wilaya_id":"5","longitude":"6.414192","latitude":"35.431375"},
{"id":"165","name":"Ouled Fadel","ar_name":"أولاد فاضل","post_code":"5049","wilaya_id":"5","longitude":"6.625505","latitude":"35.484171"},
{"id":"166","name":"Timgad","ar_name":"تيمقاد","post_code":"5050","wilaya_id":"5","longitude":"6.468013","latitude":"35.494912"},
{"id":"167","name":"Ras El Aioun","ar_name":"رأس العيون","post_code":"5051","wilaya_id":"5","longitude":"5.654531","latitude":"35.681438"},
{"id":"168","name":"Chir","ar_name":"شير","post_code":"5052","wilaya_id":"5","longitude":"6.132200","latitude":"35.227357"},
{"id":"169","name":"Ouled Si Slimane","ar_name":"أولاد سي سليمان","post_code":"5053","wilaya_id":"5","longitude":"5.632816","latitude":"35.611932"},
{"id":"170","name":"Zanet El Beida","ar_name":"زانة البيضاء","post_code":"5054","wilaya_id":"5","longitude":"6.085056","latitude":"35.779111"},
{"id":"171","name":"M Doukal","ar_name":"أمدوكال","post_code":"5055","wilaya_id":"5","longitude":"5.178705","latitude":"35.120295"},
{"id":"172","name":"Ouled Ammar","ar_name":"أولاد عمار","post_code":"5056","wilaya_id":"5","longitude":"5.156348","latitude":"35.462351"},
{"id":"173","name":"El Hassi","ar_name":"الحاسي","post_code":"5057","wilaya_id":"5","longitude":"5.940513","latitude":"35.802610"},
{"id":"174","name":"Lazrou","ar_name":"لازرو","post_code":"5058","wilaya_id":"5","longitude":"6.216656","latitude":"35.842939"},
{"id":"175","name":"Boumia","ar_name":"بومية","post_code":"5059","wilaya_id":"5","longitude":"6.482585","latitude":"35.678190"},
{"id":"176","name":"Boulhilat","ar_name":"بولهيلات","post_code":"5060","wilaya_id":"5","longitude":"6.662489","latitude":"35.726573"},
{"id":"177","name":"Larbaa","ar_name":"الاربعاء","post_code":"5061","wilaya_id":"5","longitude":"6.140520","latitude":"35.354320"},
{"id":"178","name":"Bejaia","ar_name":"بجاية","post_code":"6001","wilaya_id":"6","longitude":"5.055684","latitude":"36.751526"},
{"id":"179","name":"Amizour","ar_name":"اميزور","post_code":"6002","wilaya_id":"6","longitude":"4.903658","latitude":"36.643932"},
{"id":"180","name":"Feraoun","ar_name":"فرعون","post_code":"6003","wilaya_id":"6","longitude":"4.860331","latitude":"36.558393"},
{"id":"181","name":"Taourit Ighil","ar_name":"تاوريرت اغيل","post_code":"6004","wilaya_id":"6","longitude":"4.696342","latitude":"36.699147"},
{"id":"182","name":"Chellata","ar_name":"شلاطة","post_code":"6005","wilaya_id":"6","longitude":"4.501932","latitude":"36.514946"},
{"id":"183","name":"Tamokra","ar_name":"تامقرة","post_code":"6006","wilaya_id":"6","longitude":"4.657055","latitude":"36.406332"},
{"id":"184","name":"Timezrit","ar_name":"تيمزريت","post_code":"6007","wilaya_id":"6","longitude":"4.768479","latitude":"36.620123"},
{"id":"185","name":"Souk El Tenine","ar_name":"ﺳﻮق اﻻﺛﻨﻴﻦ","post_code":"6008","wilaya_id":"6","longitude":"5.335190","latitude":"36.627973"},
{"id":"186","name":"M'cisna","ar_name":"مسيسنة","post_code":"6009","wilaya_id":"6","longitude":"4.710419","latitude":"36.563330"},
{"id":"187","name":"Tinebdar","ar_name":"تينبذار","post_code":"6010","wilaya_id":"6","longitude":"4.685691","latitude":"36.625827"},
{"id":"188","name":"Tichy","ar_name":"تيشي","post_code":"6011","wilaya_id":"6","longitude":"5.163894","latitude":"36.655046"},
{"id":"189","name":"Smaoun","ar_name":"سمعون","post_code":"6012","wilaya_id":"6","longitude":"4.821830","latitude":"36.608594"},
{"id":"190","name":"Kendira","ar_name":"كنديرة","post_code":"6013","wilaya_id":"6","longitude":"5.011048","latitude":"36.541013"},
{"id":"191","name":"Tifra","ar_name":"تيفرة","post_code":"6014","wilaya_id":"6","longitude":"4.697780","latitude":"36.666725"},
{"id":"192","name":"Ighram","ar_name":"إغرم","post_code":"6015","wilaya_id":"6","longitude":"4.462375","latitude":"36.476201"},
{"id":"193","name":"Amalou","ar_name":"امالو","post_code":"6016","wilaya_id":"6","longitude":"4.631876","latitude":"36.477927"},
{"id":"194","name":"Ighil Ali","ar_name":"إغيل على","post_code":"6017","wilaya_id":"6","longitude":"4.469623","latitude":"36.338161"},
{"id":"195","name":"Fenaia Il Maten","ar_name":"افناين الماثن","post_code":"6018","wilaya_id":"6","longitude":"4.770215","latitude":"36.665632"},
{"id":"196","name":"Toudja","ar_name":"توجة","post_code":"6019","wilaya_id":"6","longitude":"4.894965","latitude":"36.752559"},
{"id":"197","name":"Darghina","ar_name":"درقينة","post_code":"6020","wilaya_id":"6","longitude":"5.306154","latitude":"36.564252"},
{"id":"198","name":"Sidi Ayad","ar_name":"سيدي عياد","post_code":"6021","wilaya_id":"6","longitude":"4.715040","latitude":"36.612143"},
{"id":"199","name":"Aokas","ar_name":"أوقاس","post_code":"6022","wilaya_id":"6","longitude":"5.245245","latitude":"36.637635"},
{"id":"200","name":"Beni Dejllil","ar_name":"آيث جليل","post_code":"6023","wilaya_id":"6","longitude":"4.800233","latitude":"36.566982"},
{"id":"201","name":"Adekar","ar_name":"آدكار","post_code":"6024","wilaya_id":"6","longitude":"4.670908","latitude":"36.693285"},
{"id":"202","name":"Akbou","ar_name":"أقبو","post_code":"6025","wilaya_id":"6","longitude":"4.536509","latitude":"36.455640"},
{"id":"203","name":"Seddouk","ar_name":"صدوق","post_code":"6026","wilaya_id":"6","longitude":"4.686702","latitude":"36.546787"},
{"id":"204","name":"Tazmalt","ar_name":"تازمالت","post_code":"6027","wilaya_id":"6","longitude":"4.395497","latitude":"36.390382"},
{"id":"205","name":"Ait R'zine","ar_name":"آيت أرزين","post_code":"6028","wilaya_id":"6","longitude":"4.485753","latitude":"36.371265"},
{"id":"206","name":"Chemini","ar_name":"شميني","post_code":"6029","wilaya_id":"6","longitude":"4.614908","latitude":"36.593284"},
{"id":"207","name":"Souk Oufella","ar_name":"سوق أوفلة","post_code":"6030","wilaya_id":"6","longitude":"4.636929","latitude":"36.603678"},
{"id":"208","name":"Taskriout","ar_name":"تاسقريوت","post_code":"6031","wilaya_id":"6","longitude":"5.286070","latitude":"36.554875"},
{"id":"209","name":"Tibane","ar_name":"طيبان","post_code":"6032","wilaya_id":"6","longitude":"4.650200","latitude":"36.611565"},
{"id":"210","name":"Tala Hamza","ar_name":"ثالة حمزة","post_code":"6033","wilaya_id":"6","longitude":"5.014469","latitude":"36.681354"},
{"id":"211","name":"Barbacha","ar_name":"برباشة","post_code":"6034","wilaya_id":"6","longitude":"4.973517","latitude":"36.570766"},
{"id":"212","name":"Beni K'sila","ar_name":"بنى كسيلة","post_code":"6035","wilaya_id":"6","longitude":"4.661605","latitude":"36.882112"},
{"id":"213","name":"Ouzellaguene","ar_name":"أوزلاقن","post_code":"6036","wilaya_id":"6","longitude":"4.611869","latitude":"36.540038"},
{"id":"214","name":"Bouhamza","ar_name":"بوحمزة","post_code":"6037","wilaya_id":"6","longitude":"4.686012","latitude":"36.445583"},
{"id":"215","name":"Beni Mallikeche","ar_name":"بنى مليكش","post_code":"6038","wilaya_id":"6","longitude":"4.413423","latitude":"36.445689"},
{"id":"216","name":"Sidi Aich","ar_name":"سيدي عيش","post_code":"6039","wilaya_id":"6","longitude":"4.690172","latitude":"36.609718"},
{"id":"217","name":"El Kseur","ar_name":"القصر","post_code":"6040","wilaya_id":"6","longitude":"4.849290","latitude":"36.677538"},
{"id":"218","name":"Melbou","ar_name":"ملبو","post_code":"6041","wilaya_id":"6","longitude":"5.362539","latitude":"36.640332"},
{"id":"219","name":"Akfadou","ar_name":"اكفادو","post_code":"6042","wilaya_id":"6","longitude":"4.614048","latitude":"36.660504"},
{"id":"220","name":"Leflaye","ar_name":"لفلاى","post_code":"6043","wilaya_id":"6","longitude":"4.665980","latitude":"36.608015"},
{"id":"221","name":"Kherrata","ar_name":"خراطة","post_code":"6044","wilaya_id":"6","longitude":"5.277071","latitude":"36.493640"},
{"id":"222","name":"Dra El Caid","ar_name":"ذراع القايد","post_code":"6045","wilaya_id":"6","longitude":"5.263732","latitude":"36.418607"},
{"id":"223","name":"Tamridjet","ar_name":"تامريجت","post_code":"6046","wilaya_id":"6","longitude":"5.373555","latitude":"36.572271"},
{"id":"224","name":"Ait Smail","ar_name":"آيت سماعيل","post_code":"6047","wilaya_id":"6","longitude":"5.237882","latitude":"36.554139"},
{"id":"225","name":"Boukhelifa","ar_name":"بوخليفة","post_code":"6048","wilaya_id":"6","longitude":"5.072140","latitude":"36.650808"},
{"id":"226","name":"Tizi N'berber","ar_name":"تيزى نبربر","post_code":"6049","wilaya_id":"6","longitude":"5.216992","latitude":"36.612533"},
{"id":"227","name":"Benimaouche","ar_name":"بني معوش","post_code":"6050","wilaya_id":"6","longitude":"4.762345","latitude":"36.505269"},
{"id":"228","name":"Oued Ghir","ar_name":"وادي غير","post_code":"6051","wilaya_id":"6","longitude":"4.979038","latitude":"36.705501"},
{"id":"229","name":"Boudjellil","ar_name":"بوجليل","post_code":"6052","wilaya_id":"6","longitude":"4.378994","latitude":"36.337267"},
{"id":"230","name":"Biskra","ar_name":"بسكرة","post_code":"7001","wilaya_id":"7","longitude":"5.724857","latitude":"34.844944"},
{"id":"231","name":"Oumache","ar_name":"أوماش","post_code":"7002","wilaya_id":"7","longitude":"5.698071","latitude":"34.693816"},
{"id":"232","name":"Branis","ar_name":"البرانس","post_code":"7003","wilaya_id":"7","longitude":"5.712637","latitude":"34.980217"},
{"id":"233","name":"Chetma","ar_name":"شتمة","post_code":"7004","wilaya_id":"7","longitude":"5.788848","latitude":"34.849785"},
{"id":"234","name":"Ouled Djellal","ar_name":"أولاد جلال","post_code":"7005","wilaya_id":"51","longitude":"5.068116","latitude":"34.429429"},
{"id":"235","name":"Ras El Miad","ar_name":"راس الميعاد","post_code":"7006","wilaya_id":"51","longitude":"4.453281","latitude":"34.184566"},
{"id":"236","name":"Besbes","ar_name":"البسباس","post_code":"7007","wilaya_id":"36","longitude":"4.993355","latitude":"34.148135"},
{"id":"237","name":"Sidi Khaled","ar_name":"سيدي خالد","post_code":"7008","wilaya_id":"22","longitude":"4.997093","latitude":"34.397074"},
{"id":"238","name":"Doucen","ar_name":"الدوسن","post_code":"7009","wilaya_id":"51","longitude":"5.121448","latitude":"34.609948"},
{"id":"239","name":"Chaiba","ar_name":"شعيبة","post_code":"7010","wilaya_id":"42","longitude":"5.045178","latitude":"34.783302"},
{"id":"240","name":"Sidi Okba","ar_name":"سيدي عقبة","post_code":"7011","wilaya_id":"7","longitude":"5.908408","latitude":"34.750587"},
{"id":"241","name":"M'chouneche","ar_name":"مشونش","post_code":"7012","wilaya_id":"7","longitude":"5.990063","latitude":"34.936967"},
{"id":"242","name":"El Haouch","ar_name":"الحوش","post_code":"7013","wilaya_id":"7","longitude":"6.046158","latitude":"34.563942"},
{"id":"243","name":"Ain Naga","ar_name":"عين الناقة","post_code":"7014","wilaya_id":"7","longitude":"6.208666","latitude":"34.683076"},
{"id":"244","name":"Zeribet El Oued","ar_name":"زريبة الوادي","post_code":"7015","wilaya_id":"7","longitude":"6.493414","latitude":"34.685617"},
{"id":"245","name":"El Feidh","ar_name":"الفيض","post_code":"7016","wilaya_id":"7","longitude":"6.522696","latitude":"34.521824"},
{"id":"246","name":"El Kantara","ar_name":"القنطرة","post_code":"7017","wilaya_id":"7","longitude":"5.710247","latitude":"35.218027"},
{"id":"247","name":"Ain Zaatout","ar_name":"عين زعطوط","post_code":"7018","wilaya_id":"7","longitude":"5.837316","latitude":"35.146350"},
{"id":"248","name":"El Outaya","ar_name":"لوطاية","post_code":"7019","wilaya_id":"7","longitude":"5.587160","latitude":"35.032801"},
{"id":"249","name":"Djemorah","ar_name":"جمورة","post_code":"7020","wilaya_id":"7","longitude":"5.845819","latitude":"35.071302"},
{"id":"250","name":"Tolga","ar_name":"طولقة","post_code":"7021","wilaya_id":"7","longitude":"5.130513","latitude":"34.934611"},
{"id":"251","name":"Lioua","ar_name":"لواء","post_code":"7022","wilaya_id":"7","longitude":"5.395908","latitude":"34.638336"},
{"id":"252","name":"Lichana","ar_name":"لشانة","post_code":"7023","wilaya_id":"7","longitude":"5.432553","latitude":"34.724729"},
{"id":"253","name":"Ourlal","ar_name":"أورلال","post_code":"7024","wilaya_id":"7","longitude":"5.512895","latitude":"34.655656"},
{"id":"254","name":"M'lili","ar_name":"مليلي","post_code":"7025","wilaya_id":"7","longitude":"5.563921","latitude":"34.669221"},
{"id":"255","name":"Foughala","ar_name":"فوغالة","post_code":"7026","wilaya_id":"7","longitude":"5.329351","latitude":"34.728734"},
{"id":"256","name":"Bordj Ben Azzouz","ar_name":"برج بن عزوز","post_code":"7027","wilaya_id":"7","longitude":"5.358875","latitude":"34.700258"},
{"id":"257","name":"Meziraa","ar_name":"مزيرعة","post_code":"7028","wilaya_id":"7","longitude":"6.293085","latitude":"34.721195"},
{"id":"258","name":"Bouchagroun","ar_name":"بوشقرون","post_code":"7029","wilaya_id":"7","longitude":"5.466032","latitude":"34.724544"},
{"id":"259","name":"Mekhadma","ar_name":"مخادمة","post_code":"7030","wilaya_id":"7","longitude":"5.472655","latitude":"34.651865"},
{"id":"260","name":"El Ghrous","ar_name":"الغروس","post_code":"7031","wilaya_id":"7","longitude":"5.283282","latitude":"34.720767"},
{"id":"261","name":"El Hadjab","ar_name":"الحاجب","post_code":"7032","wilaya_id":"7","longitude":"5.597429","latitude":"34.790961"},
{"id":"262","name":"Khenguet Sidi Nadji","ar_name":"خنڨة سيدي ناجي","post_code":"7033","wilaya_id":"7","longitude":"6.706841","latitude":"34.805914"},
{"id":"263","name":"Bechar","ar_name":"بشار","post_code":"8001","wilaya_id":"8","longitude":"-2.216244","latitude":"31.623810"},
{"id":"264","name":"Erg Ferradj","ar_name":"عرق فراج","post_code":"8002","wilaya_id":"8","longitude":"-2.792018","latitude":"31.035044"},
{"id":"265","name":"Ouled Khoudir","ar_name":"أولاد خدير","post_code":"8003","wilaya_id":"52","longitude":"-1.893514","latitude":"29.666679"},
{"id":"266","name":"Meridja","ar_name":"مريجة","post_code":"8004","wilaya_id":"8","longitude":"-2.946079","latitude":"31.548969"},
{"id":"267","name":"Timoudi","ar_name":"تيمودى","post_code":"8005","wilaya_id":"52","longitude":"-1.173699","latitude":"29.366353"},
{"id":"268","name":"Lahmar","ar_name":"لحمر","post_code":"8006","wilaya_id":"8","longitude":"-2.258314","latitude":"31.931706"},
{"id":"269","name":"Beni Abbes","ar_name":"بني عباس","post_code":"8007","wilaya_id":"52","longitude":"-2.166226","latitude":"30.131222"},
{"id":"270","name":"Beni Ikhlef","ar_name":"بني يخلف","post_code":"8008","wilaya_id":"52","longitude":"-1.605812","latitude":"29.575786"},
{"id":"271","name":"Mechraa H.boumediene","ar_name":"مشرع ھوارى بومدين","post_code":"8009","wilaya_id":"8","longitude":"-2.737545","latitude":"30.932247"},
{"id":"272","name":"Kenadsa","ar_name":"القنادسة","post_code":"8010","wilaya_id":"8","longitude":"-2.425653","latitude":"31.554898"},
{"id":"273","name":"Igli","ar_name":"إقلي","post_code":"8011","wilaya_id":"52","longitude":"-3.145342","latitude":"30.478214"},
{"id":"274","name":"Tabelbala","ar_name":"تبلبالة","post_code":"8012","wilaya_id":"52","longitude":"-3.257159","latitude":"29.406941"},
{"id":"275","name":"Taghit","ar_name":"تــــاغـيــث","post_code":"8013","wilaya_id":"8","longitude":"-2.010365","latitude":"30.879216"},
{"id":"276","name":"El Ouata","ar_name":"الوطى","post_code":"8014","wilaya_id":"52","longitude":"-1.837122","latitude":"29.858882"},
{"id":"277","name":"Boukais","ar_name":"بوكايس","post_code":"8015","wilaya_id":"8","longitude":"-2.489973","latitude":"32.066565"},
{"id":"278","name":"Mogheul","ar_name":"موغل","post_code":"8016","wilaya_id":"8","longitude":"-2.219393","latitude":"32.021624"},
{"id":"279","name":"Abadla","ar_name":"العبادلة","post_code":"8017","wilaya_id":"8","longitude":"-2.745868","latitude":"31.002310"},
{"id":"280","name":"Kerzaz","ar_name":"كرزاز","post_code":"8018","wilaya_id":"52","longitude":"-2.166226","latitude":"30.131222"},
{"id":"281","name":"Ksabi","ar_name":"قصابى","post_code":"8019","wilaya_id":"52","longitude":"-0.971678","latitude":"29.102557"},
{"id":"282","name":"Tamtert","ar_name":"تامترت","post_code":"8020","wilaya_id":"52","longitude":"-1.888392","latitude":"29.909624"},
{"id":"283","name":"Beni Ounif","ar_name":"بني ونيف","post_code":"8021","wilaya_id":"8","longitude":"-0.693295","latitude":"31.282904"},
{"id":"284","name":"Blida","ar_name":"البليدة‎","post_code":"9001","wilaya_id":"9","longitude":"2.832315","latitude":"36.473572"},
{"id":"285","name":"Chebli","ar_name":"الشبلي","post_code":"9002","wilaya_id":"9","longitude":"3.009176","latitude":"36.577382"},
{"id":"286","name":"Bouinan","ar_name":"بوعينان","post_code":"9003","wilaya_id":"9","longitude":"2.993968","latitude":"36.532428"},
{"id":"287","name":"Oued El Alleug","ar_name":"واد العلايڨ","post_code":"9004","wilaya_id":"9","longitude":"2.789631","latitude":"36.555896"},
{"id":"288","name":"Ouled Yaich","ar_name":"اولاد يعيش","post_code":"9007","wilaya_id":"9","longitude":"2.862698","latitude":"36.494155"},
{"id":"289","name":"Chrea","ar_name":"الشريعة","post_code":"9008","wilaya_id":"9","longitude":"2.876538","latitude":"36.426760"},
{"id":"290","name":"El Affroun","ar_name":"العفرون","post_code":"9010","wilaya_id":"9","longitude":"2.625741","latitude":"36.470159"},
{"id":"291","name":"Chiffa","ar_name":"الشفة","post_code":"9011","wilaya_id":"9","longitude":"2.741055","latitude":"36.462490"},
{"id":"292","name":"Hamam Debagh","ar_name":"حمام دباغ","post_code":"9012","wilaya_id":"24","longitude":"3.044019","latitude":"36.487117"},
{"id":"293","name":"Benkhelil","ar_name":"بني خليل","post_code":"9013","wilaya_id":"9","longitude":"2.876616","latitude":"36.620411"},
{"id":"294","name":"Souma","ar_name":"صومعة","post_code":"9014","wilaya_id":"9","longitude":"2.907785","latitude":"36.518839"},
{"id":"295","name":"Mouzaia","ar_name":"موزاية","post_code":"9016","wilaya_id":"9","longitude":"2.689860","latitude":"36.466912"},
{"id":"296","name":"Souhane","ar_name":"صوحان","post_code":"9017","wilaya_id":"9","longitude":"3.237767","latitude":"36.507414"},
{"id":"297","name":"Meftah","ar_name":"مفتاح","post_code":"9018","wilaya_id":"9","longitude":"3.226130","latitude":"36.622387"},
{"id":"298","name":"Ouled Slama","ar_name":"أولاد سلامة","post_code":"9019","wilaya_id":"9","longitude":"3.108668","latitude":"36.552706"},
{"id":"299","name":"Boufarik","ar_name":"بوفاريك","post_code":"9020","wilaya_id":"9","longitude":"2.912126","latitude":"36.583241"},
{"id":"300","name":"Larbaa","ar_name":"الاربعاء","post_code":"9021","wilaya_id":"9","longitude":"3.153996","latitude":"36.565153"},
{"id":"301","name":"Oued Djer","ar_name":"واد جر","post_code":"9022","wilaya_id":"9","longitude":"2.561006","latitude":"36.426482"},
{"id":"302","name":"Beni Tamou","ar_name":"بني تامو","post_code":"9023","wilaya_id":"9","longitude":"2.821195","latitude":"36.534220"},
{"id":"303","name":"Bouarfa","ar_name":"بوعرفة","post_code":"9024","wilaya_id":"9","longitude":"2.815952","latitude":"36.466645"},
{"id":"304","name":"Beni Mered","ar_name":"بني مراد","post_code":"9025","wilaya_id":"9","longitude":"2.860275","latitude":"36.520770"},
{"id":"305","name":"Bougara","ar_name":"بوڨرة","post_code":"9026","wilaya_id":"9","longitude":"3.082845","latitude":"36.541927"},
{"id":"306","name":"Guerrouaou","ar_name":"ڨرواو","post_code":"9027","wilaya_id":"9","longitude":"2.881798","latitude":"36.525933"},
{"id":"307","name":"Ain Romana","ar_name":"عين الرمانة","post_code":"9028","wilaya_id":"9","longitude":"2.694317","latitude":"36.429181"},
{"id":"308","name":"Djebabra","ar_name":"جبابرة","post_code":"9029","wilaya_id":"9","longitude":"3.265424","latitude":"36.581868"},
{"id":"309","name":"Bouira","ar_name":"البويرة","post_code":"10001","wilaya_id":"10","longitude":"3.900619","latitude":"36.369185"},
{"id":"310","name":"El Asnam","ar_name":"الأصنام","post_code":"10002","wilaya_id":"10","longitude":"4.008553","latitude":"36.322947"},
{"id":"311","name":"Guerrouma","ar_name":"قرومة","post_code":"10003","wilaya_id":"10","longitude":"3.451989","latitude":"36.484883"},
{"id":"312","name":"Souk El Khemis","ar_name":"سوق الخميس","post_code":"10004","wilaya_id":"10","longitude":"3.636876","latitude":"36.385110"},
{"id":"313","name":"Kadiria","ar_name":"قادرية","post_code":"10005","wilaya_id":"10","longitude":"3.683037","latitude":"36.534008"},
{"id":"314","name":"Hanif","ar_name":"احنيف","post_code":"10006","wilaya_id":"10","longitude":"4.268714","latitude":"36.337530"},
{"id":"315","name":"Dirah","ar_name":"ديــرة","post_code":"10007","wilaya_id":"10","longitude":"3.755143","latitude":"36.003186"},
{"id":"316","name":"Ait Laaziz","ar_name":"آيت لعزيز","post_code":"10008","wilaya_id":"10","longitude":"3.870480","latitude":"36.451820"},
{"id":"317","name":"Taghzout","ar_name":"تاغزوت","post_code":"10009","wilaya_id":"10","longitude":"3.963317","latitude":"36.417574"},
{"id":"318","name":"Raouraoua","ar_name":"الروراوة","post_code":"10010","wilaya_id":"10","longitude":"3.638614","latitude":"36.213494"},
{"id":"319","name":"Mezdour","ar_name":"مسدور","post_code":"10011","wilaya_id":"10","longitude":"4.070585","latitude":"36.081697"},
{"id":"320","name":"Haizer","ar_name":"حيزر","post_code":"10012","wilaya_id":"10","longitude":"4.000208","latitude":"36.396464"},
{"id":"321","name":"Lakhdaria","ar_name":"الأخضرية","post_code":"10013","wilaya_id":"10","longitude":"3.596021","latitude":"36.566065"},
{"id":"322","name":"Maala","ar_name":"معالة","post_code":"10014","wilaya_id":"10","longitude":"3.867835","latitude":"36.439604"},
{"id":"323","name":"El Hachimia","ar_name":"الھاشمية","post_code":"10015","wilaya_id":"10","longitude":"3.815733","latitude":"36.219445"},
{"id":"324","name":"Aomar","ar_name":"أعمر","post_code":"10016","wilaya_id":"10","longitude":"3.768423","latitude":"36.491772"},
{"id":"325","name":"Chorfa","ar_name":"الشرفاء","post_code":"10017","wilaya_id":"10","longitude":"4.329034","latitude":"36.360552"},
{"id":"326","name":"Bordj Okhriss","ar_name":"برج أوخريص","post_code":"10018","wilaya_id":"10","longitude":"3.975965","latitude":"36.083879"},
{"id":"327","name":"El Adjiba","ar_name":"العجيبة","post_code":"10019","wilaya_id":"10","longitude":"4.158673","latitude":"36.328365"},
{"id":"328","name":"El Hakimia","ar_name":"الحاكمية","post_code":"10020","wilaya_id":"10","longitude":"3.780720","latitude":"36.090592"},
{"id":"329","name":"El Khabouzia","ar_name":"الخبوزية","post_code":"10021","wilaya_id":"10","longitude":"3.600835","latitude":"36.316403"},
{"id":"330","name":"Ahl El Ksar","ar_name":"أھل القصر","post_code":"10022","wilaya_id":"10","longitude":"4.043325","latitude":"36.249165"},
{"id":"331","name":"Bouderbala","ar_name":"بودربالة","post_code":"10023","wilaya_id":"10","longitude":"3.484408","latitude":"36.566251"},
{"id":"332","name":"Z'barbar","ar_name":"زبربر","post_code":"10024","wilaya_id":"10","longitude":"3.525448","latitude":"36.484759"},
{"id":"333","name":"Ain El Hadjar","ar_name":"عين الحجر","post_code":"10025","wilaya_id":"10","longitude":"3.809953","latitude":"36.339515"},
{"id":"334","name":"Djebahia","ar_name":"الجباحية","post_code":"10026","wilaya_id":"10","longitude":"3.758520","latitude":"36.477344"},
{"id":"335","name":"Aghbalou","ar_name":"أغبالو","post_code":"10027","wilaya_id":"10","longitude":"4.338878","latitude":"36.418302"},
{"id":"336","name":"Taguedite","ar_name":"تاڨديت","post_code":"10028","wilaya_id":"10","longitude":"3.992107","latitude":"36.019119"},
{"id":"337","name":"Ain Turk","ar_name":"عين الترك","post_code":"10029","wilaya_id":"10","longitude":"3.802280","latitude":"36.416082"},
{"id":"338","name":"Saharidj","ar_name":"الصهاريج","post_code":"10030","wilaya_id":"10","longitude":"4.248837","latitude":"36.396539"},
{"id":"339","name":"Dechmia","ar_name":"الدشمية","post_code":"10031","wilaya_id":"10","longitude":"3.576155","latitude":"36.130596"},
{"id":"340","name":"Ridane","ar_name":"ريدان","post_code":"10032","wilaya_id":"10","longitude":"3.489830","latitude":"36.078130"},
{"id":"341","name":"Bechloul","ar_name":"بشلول","post_code":"10033","wilaya_id":"10","longitude":"4.074986","latitude":"36.312104"},
{"id":"342","name":"Boukram","ar_name":"بوكرام","post_code":"10034","wilaya_id":"10","longitude":"3.394422","latitude":"36.543738"},
{"id":"343","name":"Ain Bessem","ar_name":"عين بسام","post_code":"10035","wilaya_id":"10","longitude":"3.687402","latitude":"36.333751"},
{"id":"344","name":"Bir Ghbalou","ar_name":"بئر غبالو","post_code":"10036","wilaya_id":"10","longitude":"3.587003","latitude":"36.263586"},
{"id":"345","name":"M Chedallah","ar_name":"مشدا الله","post_code":"10037","wilaya_id":"10","longitude":"4.269681","latitude":"36.364496"},
{"id":"346","name":"Sour El Ghozlane","ar_name":"سور الغزلان","post_code":"10038","wilaya_id":"10","longitude":"3.707419","latitude":"36.150880"},
{"id":"347","name":"Mamora","ar_name":"المعمورة","post_code":"10039","wilaya_id":"10","longitude":"3.551315","latitude":"36.033522"},
{"id":"348","name":"Ouled Rached","ar_name":"أولاد راشد","post_code":"10040","wilaya_id":"10","longitude":"4.101482","latitude":"36.183819"},
{"id":"349","name":"Ain Laloui","ar_name":"عين العلوي","post_code":"10041","wilaya_id":"10","longitude":"3.748309","latitude":"36.321734"},
{"id":"350","name":"Hadjera Zerga","ar_name":"الحجرة الزرقاء","post_code":"10042","wilaya_id":"10","longitude":"3.849542","latitude":"35.956779"},
{"id":"351","name":"Ait Mahmoud","ar_name":"آث محمود","post_code":"10043","wilaya_id":"15","longitude":"4.325462","latitude":"36.329059"},
{"id":"352","name":"El Mokrani","ar_name":"المقراني","post_code":"10044","wilaya_id":"10","longitude":"3.609990","latitude":"36.425161"},
{"id":"353","name":"Oued El Berdi","ar_name":"وادى البردي","post_code":"10045","wilaya_id":"10","longitude":"3.917830","latitude":"36.289186"},
{"id":"354","name":"Tamanrasset","ar_name":"تمنراست","post_code":"11001","wilaya_id":"11","longitude":"5.519327","latitude":"22.790297"},
{"id":"355","name":"Abalessa","ar_name":"أبلسة","post_code":"11002","wilaya_id":"11","longitude":"4.847726","latitude":"22.889787"},
{"id":"356","name":"In Ghar","ar_name":"عـيـن غــار","post_code":"11003","wilaya_id":"53","longitude":"1.904122","latitude":"27.103059"},
{"id":"357","name":"In Guezzam","ar_name":"عين قزام","post_code":"11004","wilaya_id":"54","longitude":"5.771795","latitude":"19.563226"},
{"id":"358","name":"Idles","ar_name":"إدلس","post_code":"11005","wilaya_id":"11","longitude":"5.934366","latitude":"23.817397"},
{"id":"359","name":"Tazrouk","ar_name":"تاظروك","post_code":"11006","wilaya_id":"11","longitude":"5.519327","latitude":"22.790297"},
{"id":"360","name":"Tin Zouatine","ar_name":"تين زاوتين","post_code":"11007","wilaya_id":"54","longitude":"2.098864","latitude":"20.433338"},
{"id":"361","name":"In Salah","ar_name":"عين صالح","post_code":"11008","wilaya_id":"53","longitude":"2.487849","latitude":"27.202631"},
{"id":"362","name":"Ain Amguel","ar_name":"ان أمقل","post_code":"11009","wilaya_id":"11","longitude":"4.034150","latitude":"24.936805"},
{"id":"363","name":"Foggaret Azzaouia","ar_name":"فقارة الزوى","post_code":"11010","wilaya_id":"53","longitude":"2.847621","latitude":"27.361182"},
{"id":"364","name":"Tebessa","ar_name":"تبسة","post_code":"12001","wilaya_id":"12","longitude":"8.117296","latitude":"35.401080"},
{"id":"365","name":"Bir El Ater","ar_name":"بئر العاتر","post_code":"12002","wilaya_id":"12","longitude":"8.057753","latitude":"34.749839"},
{"id":"366","name":"Cheria","ar_name":"الــشــريــعـة","post_code":"12003","wilaya_id":"12","longitude":"7.751293","latitude":"35.270950"},
{"id":"367","name":"Stah Guentis","ar_name":"سطح قنطيس","post_code":"12004","wilaya_id":"12","longitude":"7.307302","latitude":"34.999651"},
{"id":"368","name":"El Aouinet","ar_name":"العوينات","post_code":"12005","wilaya_id":"12","longitude":"7.886170","latitude":"35.868050"},
{"id":"369","name":"El Houidjbet","ar_name":"الحويجبات","post_code":"12006","wilaya_id":"12","longitude":"8.280367","latitude":"35.292590"},
{"id":"370","name":"Saf Saf El Ouesra","ar_name":"صفصاف الوسرة","post_code":"12007","wilaya_id":"12","longitude":"8.207819","latitude":"34.955858"},
{"id":"371","name":"Hammamet","ar_name":"الحمامات","post_code":"12008","wilaya_id":"12","longitude":"7.950278","latitude":"35.449191"},
{"id":"372","name":"Negrine","ar_name":"نقرين","post_code":"12009","wilaya_id":"12","longitude":"7.520411","latitude":"34.484780"},
{"id":"373","name":"Bir Mokkadem","ar_name":"بــئــر مــقـدم","post_code":"12010","wilaya_id":"12","longitude":"7.805502","latitude":"35.372556"},
{"id":"374","name":"El Kouif","ar_name":"الكويف","post_code":"12011","wilaya_id":"12","longitude":"8.243175","latitude":"35.480810"},
{"id":"375","name":"Morssot","ar_name":"مرسط","post_code":"12012","wilaya_id":"12","longitude":"8.011332","latitude":"35.667541"},
{"id":"376","name":"El Ogla","ar_name":"العقلة","post_code":"12013","wilaya_id":"12","longitude":"7.464919","latitude":"35.188506"},
{"id":"377","name":"Bir Dheheb","ar_name":"بٔير الذھب","post_code":"12014","wilaya_id":"12","longitude":"7.937854","latitude":"35.524939"},
{"id":"378","name":"El Ogla","ar_name":"العقلة","post_code":"12015","wilaya_id":"12","longitude":"7.464919","latitude":"35.188506"},
{"id":"379","name":"Guorriguer","ar_name":"قوريقر","post_code":"12016","wilaya_id":"12","longitude":"7.959286","latitude":"35.129069"},
{"id":"380","name":"Bekkaria","ar_name":"بكارية","post_code":"12017","wilaya_id":"12","longitude":"8.242137","latitude":"35.373738"},
{"id":"381","name":"Boukhadra","ar_name":"بوخضرة","post_code":"12018","wilaya_id":"12","longitude":"8.056682","latitude":"35.801824"},
{"id":"382","name":"Ouenza","ar_name":"الونزة","post_code":"12019","wilaya_id":"12","longitude":"8.132528","latitude":"35.951835"},
{"id":"383","name":"El Malabiod","ar_name":"الماء الأبيض","post_code":"12020","wilaya_id":"12","longitude":"8.155707","latitude":"35.268861"},
{"id":"384","name":"Oum Ali","ar_name":"أم على","post_code":"12021","wilaya_id":"12","longitude":"8.302429","latitude":"35.009818"},
{"id":"385","name":"Telidjen","ar_name":"ثليجان","post_code":"12022","wilaya_id":"12","longitude":"7.767845","latitude":"35.118621"},
{"id":"386","name":"Ain Zerga","ar_name":"عين الزرقاء","post_code":"12023","wilaya_id":"12","longitude":"8.258932","latitude":"35.648499"},
{"id":"387","name":"El Meridj","ar_name":"المريج","post_code":"12024","wilaya_id":"12","longitude":"8.229932","latitude":"35.796206"},
{"id":"388","name":"Boulhaf Dyr","ar_name":"بولحاف الدير","post_code":"12025","wilaya_id":"12","longitude":"8.078132","latitude":"35.488653"},
{"id":"389","name":"Bedjene","ar_name":"بجن","post_code":"12026","wilaya_id":"12","longitude":"7.473937","latitude":"35.349744"},
{"id":"390","name":"El Mezeraa","ar_name":"المزرعة","post_code":"12027","wilaya_id":"12","longitude":"7.641389","latitude":"35.168056"},
{"id":"391","name":"Ferkane","ar_name":"فـــــــركـــــان","post_code":"12028","wilaya_id":"12","longitude":"7.411520","latitude":"34.555137"},
{"id":"392","name":"Tlemcen","ar_name":"تلمسان","post_code":"13001","wilaya_id":"13","longitude":"-1.316682","latitude":"34.882886"},
{"id":"393","name":"Beni Mester","ar_name":"بني مستار","post_code":"13002","wilaya_id":"13","longitude":"-1.421446","latitude":"34.866303"},
{"id":"394","name":"Ain Tallout","ar_name":"عين تالوت","post_code":"13003","wilaya_id":"13","longitude":"-0.963154","latitude":"34.926913"},
{"id":"395","name":"Remchi","ar_name":"الرمشي","post_code":"13004","wilaya_id":"13","longitude":"-1.426380","latitude":"35.064069"},
{"id":"396","name":"El Fehoul","ar_name":"الفحول","post_code":"13005","wilaya_id":"13","longitude":"-1.290726","latitude":"35.117844"},
{"id":"397","name":"Sabra","ar_name":"صبرة","post_code":"13006","wilaya_id":"13","longitude":"-1.529165","latitude":"34.827903"},
{"id":"398","name":"Ghazaouet","ar_name":"الغزوات","post_code":"13007","wilaya_id":"13","longitude":"-1.861861","latitude":"35.093654"},
{"id":"399","name":"Souani","ar_name":"السواني","post_code":"13008","wilaya_id":"13","longitude":"-1.913909","latitude":"34.920927"},
{"id":"400","name":"Djebala","ar_name":"جبالة","post_code":"13009","wilaya_id":"13","longitude":"-1.792760","latitude":"34.974347"},
{"id":"401","name":"El Gor","ar_name":"الغور","post_code":"13010","wilaya_id":"13","longitude":"-1.156964","latitude":"34.637887"},
{"id":"402","name":"Oued Chouly","ar_name":"وادى الشولى","post_code":"13011","wilaya_id":"13","longitude":"-1.179004","latitude":"34.835213"},
{"id":"403","name":"Ain Fezza","ar_name":"عين فزّة","post_code":"13012","wilaya_id":"13","longitude":"-1.235701","latitude":"34.878772"},
{"id":"404","name":"Ouled Mimoun","ar_name":"أولاد ميمون","post_code":"13013","wilaya_id":"13","longitude":"-1.034236","latitude":"34.904412"},
{"id":"405","name":"Amieur","ar_name":"عمير","post_code":"13014","wilaya_id":"13","longitude":"-1.239276","latitude":"35.030819"},
{"id":"406","name":"Ain Youcef","ar_name":"عين يوسف","post_code":"13015","wilaya_id":"13","longitude":"-1.375591","latitude":"35.048382"},
{"id":"407","name":"Zenata","ar_name":"زناتة","post_code":"13016","wilaya_id":"13","longitude":"-1.459178","latitude":"34.984644"},
{"id":"408","name":"Beni Snous","ar_name":"بنى سنوس","post_code":"13017","wilaya_id":"13","longitude":"-1.539483","latitude":"34.663369"},
{"id":"409","name":"Bab El Assa","ar_name":"باب العسة","post_code":"13018","wilaya_id":"13","longitude":"-2.031245","latitude":"34.965196"},
{"id":"410","name":"Dar Yaghmouracene","ar_name":"دار يغمراسن","post_code":"13019","wilaya_id":"13","longitude":"-1.800573","latitude":"35.100478"},
{"id":"411","name":"Fellaoucene","ar_name":"فلاوسن","post_code":"13020","wilaya_id":"13","longitude":"-1.599145","latitude":"35.034844"},
{"id":"412","name":"Azails","ar_name":"العزايل","post_code":"13021","wilaya_id":"13","longitude":"-1.476484","latitude":"34.680599"},
{"id":"413","name":"Sebbaa Chioukh","ar_name":"سبعة شيوخ","post_code":"13022","wilaya_id":"13","longitude":"-1.357568","latitude":"35.155072"},
{"id":"414","name":"Terny Beni Hediel","ar_name":"تيرني بني هديل","post_code":"13023","wilaya_id":"13","longitude":"-1.354569","latitude":"34.795302"},
{"id":"415","name":"Bensekrane","ar_name":"بن سكران","post_code":"13024","wilaya_id":"13","longitude":"-1.228173","latitude":"35.071876"},
{"id":"416","name":"Ain Nehala","ar_name":"عين نحالة","post_code":"13025","wilaya_id":"13","longitude":"-0.931314","latitude":"35.027687"},
{"id":"417","name":"Hennaya","ar_name":"الحناية","post_code":"13026","wilaya_id":"13","longitude":"-1.372365","latitude":"34.952310"},
{"id":"418","name":"Maghnia","ar_name":"مغنية","post_code":"13027","wilaya_id":"13","longitude":"-1.729354","latitude":"34.848660"},
{"id":"419","name":"Hammam Boughrara","ar_name":"حمام بوغرارة","post_code":"13028","wilaya_id":"13","longitude":"-1.646105","latitude":"34.891520"},
{"id":"420","name":"Souahlia","ar_name":"تونان","post_code":"13029","wilaya_id":"13","longitude":"-1.891295","latitude":"35.040866"},
{"id":"421","name":"Msirda Fouaga","ar_name":"مسيردة الفواقة","post_code":"13030","wilaya_id":"13","longitude":"-2.058855","latitude":"35.013981"},
{"id":"422","name":"Ain Fettah","ar_name":"عين فتاح","post_code":"13031","wilaya_id":"13","longitude":"-1.637887","latitude":"34.965894"},
{"id":"423","name":"El Aricha","ar_name":"العريشة","post_code":"13032","wilaya_id":"13","longitude":"-1.264773","latitude":"34.481044"},
{"id":"424","name":"Souk Tleta","ar_name":"سوق الثلاثاء","post_code":"13033","wilaya_id":"13","longitude":"-1.998249","latitude":"35.022977"},
{"id":"425","name":"Sidi Abdelli","ar_name":"سيدي العبدلي","post_code":"13034","wilaya_id":"13","longitude":"-1.131893","latitude":"35.060921"},
{"id":"426","name":"Sebdou","ar_name":"سبدو","post_code":"13035","wilaya_id":"13","longitude":"-1.332968","latitude":"34.637665"},
{"id":"427","name":"Beni Ouarsous","ar_name":"برج عريمة","post_code":"13036","wilaya_id":"13","longitude":"-1.557618","latitude":"35.083383"},
{"id":"428","name":"Sidi Medjahed","ar_name":"سيدي مجاهد","post_code":"13037","wilaya_id":"13","longitude":"-1.667193","latitude":"34.773819"},
{"id":"429","name":"Beni Boussaid","ar_name":"بني بوسعيد","post_code":"13038","wilaya_id":"13","longitude":"-1.753041","latitude":"34.648701"},
{"id":"430","name":"Marsa Ben M'hidi","ar_name":"مرسى بن مھيدي","post_code":"13039","wilaya_id":"13","longitude":"-2.135204","latitude":"35.053138"},
{"id":"431","name":"Nedroma","ar_name":"ندرومة","post_code":"13040","wilaya_id":"13","longitude":"-1.766694","latitude":"35.029292"},
{"id":"432","name":"Sidi Djilali","ar_name":"سيدي الجيلالي","post_code":"13041","wilaya_id":"13","longitude":"-1.568986","latitude":"34.447107"},
{"id":"433","name":"Beni Bahdel","ar_name":"بني بهدل","post_code":"13042","wilaya_id":"13","longitude":"-1.520411","latitude":"34.692884"},
{"id":"434","name":"Bouihi","ar_name":"البويھي","post_code":"13043","wilaya_id":"13","longitude":"-1.687838","latitude":"34.415148"},
{"id":"435","name":"Honaine","ar_name":"هنين","post_code":"13044","wilaya_id":"13","longitude":"-1.673231","latitude":"35.154113"},
{"id":"436","name":"Tianet","ar_name":"تيانت","post_code":"13045","wilaya_id":"13","longitude":"-1.838654","latitude":"35.050851"},
{"id":"437","name":"Ouled Riyah","ar_name":"أولاد رياح","post_code":"13046","wilaya_id":"13","longitude":"-1.497892","latitude":"34.960385"},
{"id":"438","name":"Bouhlou","ar_name":"بوحلو","post_code":"13047","wilaya_id":"13","longitude":"-1.578152","latitude":"34.778822"},
{"id":"439","name":"Souk El Khemis","ar_name":"سوق الخميس","post_code":"13048","wilaya_id":"10","longitude":"-1.557306","latitude":"35.172537"},
{"id":"440","name":"Ain Ghoraba","ar_name":"عين غرابة","post_code":"13049","wilaya_id":"13","longitude":"-1.389918","latitude":"34.716734"},
{"id":"441","name":"Chetouane","ar_name":"شتوان","post_code":"13050","wilaya_id":"13","longitude":"-1.299604","latitude":"34.923912"},
{"id":"442","name":"Mansourah","ar_name":"المنصورة","post_code":"13051","wilaya_id":"13","longitude":"2.780149","latitude":"32.023733"},
{"id":"443","name":"Beni Mester","ar_name":"بني مستار","post_code":"13052","wilaya_id":"13","longitude":"-1.026132","latitude":"34.818440"},
{"id":"444","name":"Ain Kebira","ar_name":"عين الكبيرة","post_code":"13053","wilaya_id":"13","longitude":"-1.676236","latitude":"35.030692"},
{"id":"445","name":"Tiaret","ar_name":"تيارت‎","post_code":"14001","wilaya_id":"14","longitude":"1.321785","latitude":"35.370869"},
{"id":"446","name":"Medroussa","ar_name":"مدروسة","post_code":"14002","wilaya_id":"14","longitude":"1.149912","latitude":"35.188708"},
{"id":"447","name":"Ain Bouchekif","ar_name":"بوشقيف","post_code":"14003","wilaya_id":"14","longitude":"1.508446","latitude":"35.356054"},
{"id":"448","name":"Sidi Ali Mellal","ar_name":"سيدي علي ملال","post_code":"14004","wilaya_id":"14","longitude":"1.225204","latitude":"35.564543"},
{"id":"449","name":"Ain Zarit","ar_name":"عين زاريت","post_code":"14005","wilaya_id":"14","longitude":"1.669343","latitude":"35.353239"},
{"id":"450","name":"Ain Deheb","ar_name":"عين الذهب","post_code":"14006","wilaya_id":"14","longitude":"1.545077","latitude":"34.847127"},
{"id":"451","name":"Sidi Bakhti","ar_name":"سيدي بختي","post_code":"14007","wilaya_id":"14","longitude":"0.978360","latitude":"35.241660"},
{"id":"452","name":"Medrissa","ar_name":"مدريسة","post_code":"14008","wilaya_id":"14","longitude":"1.247432","latitude":"34.895036"},
{"id":"453","name":"Zmalet El Emir Abdelkade","ar_name":"زمالة الأمير عبد القادر","post_code":"14009","wilaya_id":"14","longitude":"2.309013","latitude":"34.896800"},
{"id":"454","name":"Madna","ar_name":"مادنة","post_code":"14010","wilaya_id":"14","longitude":"0.983692","latitude":"34.755028"},
{"id":"455","name":"Sebt","ar_name":"السبت","post_code":"14011","wilaya_id":"14","longitude":"1.351470","latitude":"35.619531"},
{"id":"456","name":"Mellakou","ar_name":"ملاكو","post_code":"14012","wilaya_id":"14","longitude":"1.235001","latitude":"35.253224"},
{"id":"457","name":"Dahmouni","ar_name":"دحموني","post_code":"14013","wilaya_id":"14","longitude":"1.426561","latitude":"35.416323"},
{"id":"458","name":"Rahouia","ar_name":"رحوية","post_code":"14014","wilaya_id":"14","longitude":"1.026420","latitude":"35.537098"},
{"id":"459","name":"Mahdia","ar_name":"المھدية","post_code":"14015","wilaya_id":"14","longitude":"1.755142","latitude":"35.429752"},
{"id":"460","name":"Sougueur","ar_name":"سوقر","post_code":"14016","wilaya_id":"14","longitude":"1.493503","latitude":"35.185742"},
{"id":"461","name":"Si Abdelghani","ar_name":"سي عبد الغنى","post_code":"14017","wilaya_id":"14","longitude":"1.633801","latitude":"35.230580"},
{"id":"462","name":"Ain El Hadid","ar_name":"عين الحديد","post_code":"14018","wilaya_id":"14","longitude":"0.889450","latitude":"35.057830"},
{"id":"463","name":"Oued Djer","ar_name":"واد جر","post_code":"14019","wilaya_id":"9","longitude":"1.321785","latitude":"35.370869"},
{"id":"464","name":"Naima","ar_name":"نعيمة","post_code":"14020","wilaya_id":"14","longitude":"1.489156","latitude":"35.047941"},
{"id":"465","name":"Meghila","ar_name":"مغيلة","post_code":"14021","wilaya_id":"14","longitude":"1.417392","latitude":"35.597131"},
{"id":"466","name":"Guertoufa","ar_name":"قرطوفة","post_code":"14022","wilaya_id":"14","longitude":"1.255124","latitude":"35.390936"},
{"id":"467","name":"Sidi Hosni","ar_name":"سيدي حسني","post_code":"14023","wilaya_id":"14","longitude":"1.519959","latitude":"35.471859"},
{"id":"468","name":"Djillali Ben Amar","ar_name":"جيلالي بن عمار","post_code":"14024","wilaya_id":"14","longitude":"0.871110","latitude":"35.430871"},
{"id":"469","name":"Sebaine","ar_name":"سبعين","post_code":"14025","wilaya_id":"14","longitude":"1.603670","latitude":"35.456666"},
{"id":"470","name":"Tousnina","ar_name":"توسنينة","post_code":"14026","wilaya_id":"14","longitude":"1.310377","latitude":"35.115230"},
{"id":"471","name":"Frenda","ar_name":"فرندة","post_code":"14027","wilaya_id":"14","longitude":"1.057207","latitude":"35.063842"},
{"id":"472","name":"Ain Kermes","ar_name":"عين كرمس","post_code":"14028","wilaya_id":"14","longitude":"1.109327","latitude":"34.908577"},
{"id":"473","name":"Ksar Chellala","ar_name":"قصر الشلالة","post_code":"14029","wilaya_id":"14","longitude":"2.315358","latitude":"35.218107"},
{"id":"474","name":"Rechaiga","ar_name":"الرشايقة","post_code":"14030","wilaya_id":"14","longitude":"1.971573","latitude":"35.407640"},
{"id":"475","name":"Nadorah","ar_name":"ملاكو","post_code":"14031","wilaya_id":"14","longitude":"1.886671","latitude":"35.291316"},
{"id":"476","name":"Tagdemt","ar_name":"تاقدمت","post_code":"14032","wilaya_id":"14","longitude":"1.229201","latitude":"35.334967"},
{"id":"477","name":"Oued Lilli","ar_name":"وادى ليلى","post_code":"14033","wilaya_id":"14","longitude":"1.270429","latitude":"35.512080"},
{"id":"478","name":"Mechraa Safa","ar_name":"مشرع الصفاء","post_code":"14034","wilaya_id":"14","longitude":"1.055342","latitude":"35.384327"},
{"id":"479","name":"Hamadia","ar_name":"الحمادية","post_code":"14035","wilaya_id":"14","longitude":"1.872781","latitude":"35.459099"},
{"id":"480","name":"Chehaima","ar_name":"شحيمة","post_code":"14036","wilaya_id":"14","longitude":"1.302634","latitude":"34.899466"},
{"id":"481","name":"Takhemaret","ar_name":"تاخمرت","post_code":"14037","wilaya_id":"14","longitude":"0.685990","latitude":"35.108999"},
{"id":"482","name":"Sidi Abderrahmane","ar_name":"سيدي عبدالرحمان","post_code":"14038","wilaya_id":"2","longitude":"1.129069","latitude":"34.800100"},
{"id":"483","name":"Serghine","ar_name":"سرغين","post_code":"14039","wilaya_id":"14","longitude":"2.485328","latitude":"35.253364"},
{"id":"484","name":"Bougara","ar_name":"بوقرة","post_code":"14040","wilaya_id":"9","longitude":"1.965866","latitude":"35.555078"},
{"id":"485","name":"Faidja","ar_name":"الفايجة","post_code":"14041","wilaya_id":"14","longitude":"1.764428","latitude":"34.973097"},
{"id":"486","name":"Tidda","ar_name":"تيدة","post_code":"14042","wilaya_id":"14","longitude":"1.268434","latitude":"35.582042"},
{"id":"487","name":"Tizi Ouzou","ar_name":"تيزي وزو","post_code":"15001","wilaya_id":"15","longitude":"4.047308","latitude":"36.713548"},
{"id":"488","name":"Ain El Hammam","ar_name":"عين الحمام","post_code":"15002","wilaya_id":"15","longitude":"4.312032","latitude":"36.569819"},
{"id":"489","name":"Akbil","ar_name":"أقبيل","post_code":"15003","wilaya_id":"15","longitude":"4.303517","latitude":"36.523260"},
{"id":"490","name":"Freha","ar_name":"فريحة","post_code":"15004","wilaya_id":"15","longitude":"4.316034","latitude":"36.756888"},
{"id":"491","name":"Souamaa","ar_name":"صوامع","post_code":"15005","wilaya_id":"15","longitude":"4.340917","latitude":"36.641344"},
{"id":"492","name":"Mechtras","ar_name":"مشطراس","post_code":"15006","wilaya_id":"15","longitude":"4.005007","latitude":"36.544789"},
{"id":"493","name":"Irdjen","ar_name":"إرجن","post_code":"15007","wilaya_id":"15","longitude":"4.151610","latitude":"36.660905"},
{"id":"494","name":"Timizart","ar_name":"تيميزارت","post_code":"15008","wilaya_id":"15","longitude":"4.244943","latitude":"36.794092"},
{"id":"495","name":"Makouda","ar_name":"ماكودة","post_code":"15009","wilaya_id":"15","longitude":"4.063320","latitude":"36.791453"},
{"id":"496","name":"Draa El Mizan","ar_name":"ذراع الميزان","post_code":"15010","wilaya_id":"15","longitude":"3.836436","latitude":"36.535720"},
{"id":"497","name":"Tizi Ghenif","ar_name":"تيزي غنيف","post_code":"15011","wilaya_id":"15","longitude":"3.773715","latitude":"36.588314"},
{"id":"498","name":"Bounouh","ar_name":"بونوح","post_code":"15012","wilaya_id":"15","longitude":"3.936398","latitude":"36.499399"},
{"id":"499","name":"Ait Chafaa","ar_name":"آيت شفعة","post_code":"15013","wilaya_id":"15","longitude":"4.532436","latitude":"36.819092"},
{"id":"500","name":"Frikat","ar_name":"فريقات","post_code":"15014","wilaya_id":"15","longitude":"3.885073","latitude":"36.511584"},
{"id":"501","name":"Beni Aissi","ar_name":"بني عيسي","post_code":"15015","wilaya_id":"15","longitude":"4.084879","latitude":"36.663628"},
{"id":"502","name":"Beni Zmenzer","ar_name":"أيت زمنزر","post_code":"15016","wilaya_id":"15","longitude":"4.040829","latitude":"36.633071"},
{"id":"503","name":"Iferhounene","ar_name":"إيفرحونن","post_code":"15017","wilaya_id":"15","longitude":"4.370673","latitude":"36.533584"},
{"id":"504","name":"Azazga","ar_name":"عزازقة","post_code":"15018","wilaya_id":"15","longitude":"4.371400","latitude":"36.745395"},
{"id":"505","name":"Illoula Oumalou","ar_name":"إيلولة أمالو","post_code":"15019","wilaya_id":"15","longitude":"4.442785","latitude":"36.580803"},
{"id":"506","name":"Yakourene","ar_name":"اعكورن","post_code":"15020","wilaya_id":"15","longitude":"4.438983","latitude":"36.734577"},
{"id":"507","name":"Larba Nath Irathen","ar_name":"الأربعاء نايت إيراثن","post_code":"15021","wilaya_id":"15","longitude":"4.203158","latitude":"36.638868"},
{"id":"508","name":"Tizi Rached","ar_name":"تيزي راشد","post_code":"15022","wilaya_id":"15","longitude":"4.208034","latitude":"36.678519"},
{"id":"509","name":"Zekri","ar_name":"زكري","post_code":"15023","wilaya_id":"15","longitude":"4.589342","latitude":"36.782356"},
{"id":"510","name":"Ouaguenoune","ar_name":"واقنون","post_code":"15024","wilaya_id":"15","longitude":"4.175015","latitude":"36.770175"},
{"id":"511","name":"Ain Zaouia","ar_name":"عين الزاوية","post_code":"15025","wilaya_id":"15","longitude":"3.895407","latitude":"36.553183"},
{"id":"512","name":"M'kira","ar_name":"مكيرة","post_code":"15026","wilaya_id":"15","longitude":"3.792719","latitude":"36.625311"},
{"id":"513","name":"Ait Yahia","ar_name":"أيت يحي","post_code":"15027","wilaya_id":"15","longitude":"4.327022","latitude":"36.578542"},
{"id":"514","name":"Ait Mahmoud","ar_name":"أيت محمود","post_code":"15028","wilaya_id":"15","longitude":"4.112472","latitude":"36.608599"},
{"id":"515","name":"Maatkas","ar_name":"المعاتقة","post_code":"15029","wilaya_id":"15","longitude":"3.984369","latitude":"36.604794"},
{"id":"516","name":"Ait Boumehdi","ar_name":"آيت بومھدى","post_code":"15030","wilaya_id":"15","longitude":"4.200091","latitude":"36.501857"},
{"id":"517","name":"Abi Youcef","ar_name":"أبي يوسف","post_code":"15031","wilaya_id":"15","longitude":"4.344536","latitude":"36.537061"},
{"id":"518","name":"Beni Douala","ar_name":"بني دوالة","post_code":"15032","wilaya_id":"15","longitude":"4.081758","latitude":"36.620871"},
{"id":"519","name":"Illilten","ar_name":"إليلتن","post_code":"15033","wilaya_id":"15","longitude":"4.394267","latitude":"36.515124"},
{"id":"520","name":"Bouzeguene","ar_name":"بوزقن","post_code":"15034","wilaya_id":"15","longitude":"4.476776","latitude":"36.617695"},
{"id":"521","name":"Ait Aggouacha","ar_name":"أيت أقواشة","post_code":"15035","wilaya_id":"15","longitude":"4.232723","latitude":"36.617158"},
{"id":"522","name":"Ouadhias","ar_name":"واضية","post_code":"15036","wilaya_id":"15","longitude":"4.088293","latitude":"36.556000"},
{"id":"523","name":"Azeffoun","ar_name":"أزفون","post_code":"15037","wilaya_id":"15","longitude":"4.422162","latitude":"36.888918"},
{"id":"524","name":"Tigzirt","ar_name":"تقزيرت","post_code":"15038","wilaya_id":"15","longitude":"4.129222","latitude":"36.891920"},
{"id":"525","name":"Djebel Aissa Mimoun","ar_name":"آيت عيسى ميمون","post_code":"15039","wilaya_id":"15","longitude":"4.130381","latitude":"36.750937"},
{"id":"526","name":"Boghni","ar_name":"بوغني","post_code":"15040","wilaya_id":"15","longitude":"3.961114","latitude":"36.532930"},
{"id":"527","name":"Ifigha","ar_name":"ايفيغاء","post_code":"15041","wilaya_id":"15","longitude":"4.409858","latitude":"36.670897"},
{"id":"528","name":"Ait Oumalou","ar_name":"آيت أومالو","post_code":"15042","wilaya_id":"15","longitude":"4.218712","latitude":"36.644179"},
{"id":"529","name":"Tirmitine","ar_name":"ترمتين","post_code":"15043","wilaya_id":"15","longitude":"3.958709","latitude":"36.675431"},
{"id":"530","name":"Akerrou","ar_name":"أقرو","post_code":"15044","wilaya_id":"15","longitude":"4.445355","latitude":"36.818668"},
{"id":"531","name":"Yatafene","ar_name":"يطافن","post_code":"15045","wilaya_id":"15","longitude":"4.280915","latitude":"36.528879"},
{"id":"532","name":"Beni Zikki","ar_name":"بنى زيكى","post_code":"15046","wilaya_id":"15","longitude":"4.505047","latitude":"36.564021"},
{"id":"533","name":"Draa Ben Khedda","ar_name":"ذراع بن خدة","post_code":"15047","wilaya_id":"15","longitude":"3.966937","latitude":"36.729257"},
{"id":"534","name":"Ouacif","ar_name":"واسيف","post_code":"15048","wilaya_id":"15","longitude":"4.204923","latitude":"36.524240"},
{"id":"535","name":"Idjeur","ar_name":"آجر","post_code":"15049","wilaya_id":"15","longitude":"4.520468","latitude":"36.666103"},
{"id":"536","name":"Mekla","ar_name":"مقلع","post_code":"15050","wilaya_id":"15","longitude":"4.266922","latitude":"36.687128"},
{"id":"537","name":"Tizi N'tleta","ar_name":"تيزي نثلاثة","post_code":"15051","wilaya_id":"15","longitude":"4.037288","latitude":"36.575496"},
{"id":"538","name":"Beni Yenni","ar_name":"بني يني","post_code":"15052","wilaya_id":"15","longitude":"4.195500","latitude":"36.583014"},
{"id":"539","name":"Aghribs","ar_name":"أغريب","post_code":"15053","wilaya_id":"15","longitude":"4.318016","latitude":"36.809455"},
{"id":"540","name":"Iflissen","ar_name":"إفليسن","post_code":"15054","wilaya_id":"15","longitude":"4.220275","latitude":"36.863441"},
{"id":"541","name":"Boudjima","ar_name":"بوجيمة","post_code":"15055","wilaya_id":"15","longitude":"4.159721","latitude":"36.814624"},
{"id":"542","name":"Ait Yahia Moussa","ar_name":"أيت يحي موسى","post_code":"15056","wilaya_id":"15","longitude":"3.887476","latitude":"36.658795"},
{"id":"543","name":"Souk El Thenine","ar_name":"سوق الإثنين","post_code":"15057","wilaya_id":"15","longitude":"4.008571","latitude":"36.594440"},
{"id":"544","name":"Ait Khellili","ar_name":"أيت خليلي","post_code":"15058","wilaya_id":"15","longitude":"4.307427","latitude":"36.658071"},
{"id":"545","name":"Sidi Naamane","ar_name":"سيدي نعمان","post_code":"15059","wilaya_id":"15","longitude":"3.981479","latitude":"36.758688"},
{"id":"546","name":"Iboudrarene","ar_name":"أبودرارن","post_code":"15060","wilaya_id":"15","longitude":"4.249612","latitude":"36.502397"},
{"id":"547","name":"Agouni Gueghrane","ar_name":"آقنى قغران","post_code":"15061","wilaya_id":"15","longitude":"4.115385","latitude":"36.515200"},
{"id":"548","name":"Mizrana","ar_name":"مزرانة","post_code":"15062","wilaya_id":"15","longitude":"4.096450","latitude":"36.845721"},
{"id":"549","name":"Imsouhal","ar_name":"إمسوحال","post_code":"15063","wilaya_id":"15","longitude":"4.387970","latitude":"36.569262"},
{"id":"550","name":"Tadmait","ar_name":"تادمايت","post_code":"15064","wilaya_id":"15","longitude":"3.901043","latitude":"36.743250"},
{"id":"551","name":"Ait Bouaddou","ar_name":"أيت بوعدو","post_code":"15065","wilaya_id":"15","longitude":"4.058279","latitude":"36.508073"},
{"id":"552","name":"Assi Youcef","ar_name":"أسي يوسف","post_code":"15066","wilaya_id":"15","longitude":"4.013773","latitude":"36.506631"},
{"id":"553","name":"Ait Toudert","ar_name":"أيت تودرت","post_code":"15067","wilaya_id":"15","longitude":"4.179680","latitude":"36.507295"},
{"id":"554","name":"Alger Centre","ar_name":"الجزائر الوسطى","post_code":"16001","wilaya_id":"16","longitude":"3.061224","latitude":"36.771225"},
{"id":"555","name":"Sidi M'hamed","ar_name":"سيدي امحمد","post_code":"16002","wilaya_id":"16","longitude":"3.056515","latitude":"36.761654"},
{"id":"556","name":"El Madania","ar_name":"المدنية","post_code":"16003","wilaya_id":"16","longitude":"3.066658","latitude":"36.741972"},
{"id":"557","name":"Mohamed Belouzdad","ar_name":"بلوزداد","post_code":"16004","wilaya_id":"16","longitude":"3.067380","latitude":"36.752252"},
{"id":"558","name":"Bab El Oued","ar_name":"باب الواد","post_code":"16005","wilaya_id":"16","longitude":"3.052363","latitude":"36.794384"},
{"id":"559","name":"Bologhine Ibnou Ziri","ar_name":"بولوغين","post_code":"16006","wilaya_id":"16","longitude":"3.036236","latitude":"36.802194"},
{"id":"560","name":"Casbah","ar_name":"القصبة","post_code":"16007","wilaya_id":"16","longitude":"3.061196","latitude":"36.784893"},
{"id":"561","name":"Oued Koriche","ar_name":"وادي قريش","post_code":"16008","wilaya_id":"16","longitude":"3.044105","latitude":"36.781600"},
{"id":"562","name":"Bir Mourad Rais","ar_name":"بير مراد رايس","post_code":"16009","wilaya_id":"16","longitude":"3.049761","latitude":"36.732355"},
{"id":"563","name":"El Biar","ar_name":"الآبيار","post_code":"16010","wilaya_id":"16","longitude":"3.030990","latitude":"36.769485"},
{"id":"564","name":"Bouzareah","ar_name":"بوزريعة","post_code":"16011","wilaya_id":"16","longitude":"3.017321","latitude":"36.790436"},
{"id":"565","name":"Birkhadem","ar_name":"بئر خادم","post_code":"16012","wilaya_id":"16","longitude":"3.049670","latitude":"36.716068"},
{"id":"566","name":"El Harrach","ar_name":"الحراش","post_code":"16013","wilaya_id":"16","longitude":"3.137663","latitude":"36.720967"},
{"id":"567","name":"Baraki","ar_name":"براقي","post_code":"16014","wilaya_id":"16","longitude":"3.102558","latitude":"36.668570"},
{"id":"568","name":"Oued Smar","ar_name":"وادي سمار","post_code":"16015","wilaya_id":"16","longitude":"3.165056","latitude":"36.707128"},
{"id":"569","name":"Bourouba","ar_name":"بوروبة","post_code":"16016","wilaya_id":"16","longitude":"3.112563","latitude":"36.713832"},
{"id":"570","name":"Hussein Dey","ar_name":"حسين داي","post_code":"16017","wilaya_id":"16","longitude":"3.096192","latitude":"36.740617"},
{"id":"571","name":"Kouba","ar_name":"القبة","post_code":"16018","wilaya_id":"16","longitude":"3.084495","latitude":"36.732213"},
{"id":"572","name":"Bachedjerah","ar_name":"باش جراح","post_code":"16019","wilaya_id":"16","longitude":"3.116742","latitude":"36.724483"},
{"id":"573","name":"Dar El Beida","ar_name":"الدار البيضاء","post_code":"16020","wilaya_id":"16","longitude":"3.209870","latitude":"36.718476"},
{"id":"574","name":"Bab Ezzouar","ar_name":"باب الزوار","post_code":"16021","wilaya_id":"16","longitude":"3.185681","latitude":"36.722018"},
{"id":"575","name":"Ben Aknoun","ar_name":"بن عكنون","post_code":"16022","wilaya_id":"16","longitude":"3.013834","latitude":"36.759770"},
{"id":"576","name":"Dely Ibrahim","ar_name":"دالي ابراهيم","post_code":"16023","wilaya_id":"16","longitude":"2.988004","latitude":"36.760322"},
{"id":"577","name":"Bains Romains","ar_name":"الحمامات","post_code":"16024","wilaya_id":"16","longitude":"2.973782","latitude":"36.812000"},
{"id":"578","name":"Rais Hamidou","ar_name":"الرايس حميدو","post_code":"16025","wilaya_id":"16","longitude":"3.011442","latitude":"36.817456"},
{"id":"579","name":"Djasr Kasentina","ar_name":"جسر قسنطينة","post_code":"16026","wilaya_id":"16","longitude":"3.074719","latitude":"36.697255"},
{"id":"580","name":"El Mouradia","ar_name":"المرادية","post_code":"16027","wilaya_id":"16","longitude":"3.042518","latitude":"36.753569"},
{"id":"581","name":"Hydra","ar_name":"حيدرة","post_code":"16028","wilaya_id":"16","longitude":"3.028874","latitude":"36.744912"},
{"id":"582","name":"Mohammadia","ar_name":"المحمدية","post_code":"16029","wilaya_id":"16","longitude":"3.157156","latitude":"36.729573"},
{"id":"583","name":"Bordj El Kiffan","ar_name":"برج الكيفان","post_code":"16030","wilaya_id":"16","longitude":"3.232259","latitude":"36.761161"},
{"id":"584","name":"El Magharia","ar_name":"المقرية","post_code":"16031","wilaya_id":"16","longitude":"3.110024","latitude":"36.730423"},
{"id":"585","name":"Beni Messous","ar_name":"بني مسوس","post_code":"16032","wilaya_id":"16","longitude":"2.977396","latitude":"36.779436"},
{"id":"586","name":"Les Eucalyptus","ar_name":"الكليتوس","post_code":"16033","wilaya_id":"16","longitude":"3.150732","latitude":"36.663792"},
{"id":"587","name":"Bir Touta","ar_name":"بئر توتة","post_code":"16034","wilaya_id":"16","longitude":"2.992909","latitude":"36.642948"},
{"id":"588","name":"Tessala El Merdja","ar_name":"تسالة المرجة","post_code":"16035","wilaya_id":"16","longitude":"2.945631","latitude":"36.630713"},
{"id":"589","name":"Ouled Chebel","ar_name":"أولاد الشبل","post_code":"16036","wilaya_id":"16","longitude":"2.989766","latitude":"36.592387"},
{"id":"590","name":"Sidi Moussa","ar_name":"سيدي موسى","post_code":"16037","wilaya_id":"16","longitude":"3.103211","latitude":"36.616579"},
{"id":"591","name":"Ain Taya","ar_name":"عين طاية","post_code":"16038","wilaya_id":"16","longitude":"3.288245","latitude":"36.792946"},
{"id":"592","name":"Bordj El Bahri","ar_name":"برج البحري","post_code":"16039","wilaya_id":"16","longitude":"3.237683","latitude":"36.787361"},
{"id":"593","name":"El Merssa","ar_name":"المرسى","post_code":"16040","wilaya_id":"16","longitude":"3.237279","latitude":"36.805908"},
{"id":"594","name":"Herraoua","ar_name":"هراوة","post_code":"16041","wilaya_id":"16","longitude":"3.313548","latitude":"36.771637"},
{"id":"595","name":"Rouiba","ar_name":"رويبة","post_code":"16042","wilaya_id":"16","longitude":"3.277988","latitude":"36.735893"},
{"id":"596","name":"Reghaia","ar_name":"الرغاية","post_code":"16043","wilaya_id":"16","longitude":"3.342550","latitude":"36.738664"},
{"id":"597","name":"Ain Benian","ar_name":"عين بنيان","post_code":"16044","wilaya_id":"16","longitude":"2.918143","latitude":"36.800402"},
{"id":"598","name":"Setaouali","ar_name":"سطاوالي","post_code":"16045","wilaya_id":"16","longitude":"2.888129","latitude":"36.753249"},
{"id":"599","name":"Zeralda","ar_name":"زرالدة","post_code":"16046","wilaya_id":"16","longitude":"2.844996","latitude":"36.713746"},
{"id":"600","name":"Maalma","ar_name":"محالمة","post_code":"16047","wilaya_id":"16","longitude":"2.874728","latitude":"36.687089"},
{"id":"601","name":"Rahmania","ar_name":"رحمانية","post_code":"16048","wilaya_id":"16","longitude":"2.906456","latitude":"36.681234"},
{"id":"602","name":"Souidania","ar_name":"سويدانية","post_code":"16049","wilaya_id":"16","longitude":"2.911912","latitude":"36.708552"},
{"id":"603","name":"Cheraga","ar_name":"شراقة","post_code":"16050","wilaya_id":"16","longitude":"2.960201","latitude":"36.766854"},
{"id":"604","name":"Ouled Fayet","ar_name":"أولاد فايت","post_code":"16051","wilaya_id":"16","longitude":"2.933980","latitude":"36.734002"},
{"id":"605","name":"El Achour","ar_name":"العاشور","post_code":"16052","wilaya_id":"16","longitude":"2.986826","latitude":"36.738133"},
{"id":"606","name":"Draria","ar_name":"درارية","post_code":"16053","wilaya_id":"16","longitude":"2.995111","latitude":"36.720057"},
{"id":"607","name":"Douira","ar_name":"دويرة","post_code":"16054","wilaya_id":"16","longitude":"2.943728","latitude":"36.672213"},
{"id":"608","name":"Baba Hesen","ar_name":"بابا حسن","post_code":"16055","wilaya_id":"16","longitude":"2.973318","latitude":"36.694293"},
{"id":"609","name":"Kheraisia","ar_name":"خرايسية","post_code":"16056","wilaya_id":"16","longitude":"2.998277","latitude":"36.667911"},
{"id":"610","name":"Sehaoula","ar_name":"السحاولة","post_code":"16057","wilaya_id":"16","longitude":"3.024264","latitude":"36.703247"},
{"id":"611","name":"Djelfa","ar_name":"الجلفة","post_code":"17001","wilaya_id":"17","longitude":"3.250376","latitude":"34.670396"},
{"id":"612","name":"Moudjebara","ar_name":"مجبرة","post_code":"17002","wilaya_id":"17","longitude":"3.471885","latitude":"34.502904"},
{"id":"613","name":"El Guedid","ar_name":"القديد","post_code":"17003","wilaya_id":"17","longitude":"2.618318","latitude":"34.648472"},
{"id":"614","name":"Hassi Bahbah","ar_name":"حاسي بحبح","post_code":"17004","wilaya_id":"17","longitude":"3.026723","latitude":"35.076254"},
{"id":"615","name":"Ain Maabed","ar_name":"عين معبد","post_code":"17005","wilaya_id":"17","longitude":"3.127783","latitude":"34.804489"},
{"id":"616","name":"Sed Rahal","ar_name":"سد رحال","post_code":"17006","wilaya_id":"17","longitude":"3.221679","latitude":"33.949061"},
{"id":"617","name":"Faidh El Botma","ar_name":"فيض البطمة","post_code":"17007","wilaya_id":"17","longitude":"3.780398","latitude":"34.529197"},
{"id":"618","name":"Birine","ar_name":"البيرين","post_code":"17008","wilaya_id":"17","longitude":"3.224032","latitude":"35.635628"},
{"id":"619","name":"Bouira Lahdab","ar_name":"بويرة الأحداب","post_code":"17009","wilaya_id":"17","longitude":"3.142761","latitude":"35.245261"},
{"id":"620","name":"Zaccar","ar_name":"زكار","post_code":"17010","wilaya_id":"17","longitude":"3.327927","latitude":"34.430607"},
{"id":"621","name":"El Khemis","ar_name":"الخميس","post_code":"17011","wilaya_id":"17","longitude":"2.595135","latitude":"35.287842"},
{"id":"622","name":"Sidi Baizid","ar_name":"سيدي بايزيد","post_code":"17012","wilaya_id":"17","longitude":"3.394500","latitude":"34.973950"},
{"id":"623","name":"M Liliha","ar_name":"المليليحة","post_code":"17013","wilaya_id":"17","longitude":"3.482142","latitude":"34.754602"},
{"id":"624","name":"El Idrissia","ar_name":"الإدريسية","post_code":"17014","wilaya_id":"17","longitude":"2.530719","latitude":"34.453102"},
{"id":"625","name":"Douis","ar_name":"الدويس","post_code":"17015","wilaya_id":"17","longitude":"2.700196","latitude":"34.367371"},
{"id":"626","name":"Hassi El Euch","ar_name":"حاسي العش","post_code":"17016","wilaya_id":"17","longitude":"3.249312","latitude":"35.153030"},
{"id":"627","name":"Messaad","ar_name":"مسعد","post_code":"17017","wilaya_id":"17","longitude":"3.492286","latitude":"34.154062"},
{"id":"628","name":"Guettara","ar_name":"قتارة","post_code":"17018","wilaya_id":"17","longitude":"4.684286","latitude":"33.161228"},
{"id":"629","name":"Sidi Ladjel","ar_name":"سيدي لعجال","post_code":"17019","wilaya_id":"17","longitude":"2.521332","latitude":"35.444933"},
{"id":"630","name":"Had Sahary","ar_name":"حد الصحاري","post_code":"17020","wilaya_id":"17","longitude":"3.366093","latitude":"35.352285"},
{"id":"631","name":"Guernini","ar_name":"القرنيني","post_code":"17021","wilaya_id":"17","longitude":"2.682039","latitude":"35.199967"},
{"id":"632","name":"Selmana","ar_name":"سلمانة","post_code":"17022","wilaya_id":"17","longitude":"3.815252","latitude":"33.797532"},
{"id":"633","name":"Ain Chouhada","ar_name":"عين الشهداء","post_code":"17023","wilaya_id":"17","longitude":"2.520716","latitude":"34.241927"},
{"id":"634","name":"Oum Laadham","ar_name":"ام العظام","post_code":"17024","wilaya_id":"17","longitude":"4.528836","latitude":"33.719373"},
{"id":"635","name":"Dar Chioukh","ar_name":"دار الشيوخ","post_code":"17025","wilaya_id":"17","longitude":"3.284556","latitude":"34.653982"},
{"id":"636","name":"Charef","ar_name":"الشارف","post_code":"17026","wilaya_id":"17","longitude":"2.807618","latitude":"34.619474"},
{"id":"637","name":"Benyagoub","ar_name":"بن يعقوب","post_code":"17027","wilaya_id":"17","longitude":"2.785236","latitude":"34.466283"},
{"id":"638","name":"Zaafrane","ar_name":"الزعفران","post_code":"17028","wilaya_id":"17","longitude":"2.855110","latitude":"34.851133"},
{"id":"639","name":"Deldoul","ar_name":"دلدول","post_code":"17029","wilaya_id":"17","longitude":"-0.104453","latitude":"28.802928"},
{"id":"640","name":"Ain El Ibel","ar_name":"عين الابل","post_code":"17030","wilaya_id":"17","longitude":"3.224991","latitude":"34.357800"},
{"id":"641","name":"Ain Oussera","ar_name":"عين وسارة","post_code":"17031","wilaya_id":"17","longitude":"2.907355","latitude":"35.448716"},
{"id":"642","name":"Benhar","ar_name":"بنهار","post_code":"17032","wilaya_id":"17","longitude":"3.012036","latitude":"35.486938"},
{"id":"643","name":"Hassi Fedoul","ar_name":"حاسي فدول","post_code":"17033","wilaya_id":"17","longitude":"2.211510","latitude":"35.437805"},
{"id":"644","name":"Amourah","ar_name":"عمورة","post_code":"17034","wilaya_id":"17","longitude":"3.933018","latitude":"34.299651"},
{"id":"645","name":"Ain Fekka","ar_name":"عين افقة","post_code":"17035","wilaya_id":"17","longitude":"3.581512","latitude":"35.427184"},
{"id":"646","name":"Tadmit","ar_name":"تعضميت","post_code":"17036","wilaya_id":"17","longitude":"2.987578","latitude":"34.285972"},
{"id":"647","name":"Jijel","ar_name":"جيجل","post_code":"18001","wilaya_id":"18","longitude":"5.763413","latitude":"36.821014"},
{"id":"648","name":"Erraguene","ar_name":"إراڨن","post_code":"18002","wilaya_id":"18","longitude":"5.583227","latitude":"36.587297"},
{"id":"649","name":"El Aouana","ar_name":"العوانة","post_code":"18003","wilaya_id":"18","longitude":"5.607862","latitude":"36.772611"},
{"id":"650","name":"Ziama Mansouria","ar_name":"زيامة منصورية","post_code":"18004","wilaya_id":"18","longitude":"5.438632","latitude":"36.661164"},
{"id":"651","name":"Taher","ar_name":"الطاهير","post_code":"18005","wilaya_id":"18","longitude":"5.897815","latitude":"36.770079"},
{"id":"652","name":"Emir Abdelkader","ar_name":"الامير عبد القادر","post_code":"18006","wilaya_id":"18","longitude":"5.843265","latitude":"36.752784"},
{"id":"653","name":"Chekfa","ar_name":"الشقفة","post_code":"18007","wilaya_id":"18","longitude":"5.962163","latitude":"36.770568"},
{"id":"654","name":"Chahna","ar_name":"الشحنة","post_code":"18008","wilaya_id":"18","longitude":"5.953162","latitude":"36.672665"},
{"id":"655","name":"El Milia","ar_name":"الميلية","post_code":"18009","wilaya_id":"18","longitude":"6.267673","latitude":"36.753121"},
{"id":"656","name":"Sidi Marouf","ar_name":"سيدي معروف","post_code":"18010","wilaya_id":"18","longitude":"6.274260","latitude":"36.640036"},
{"id":"657","name":"Settara","ar_name":"السطارة","post_code":"18011","wilaya_id":"18","longitude":"6.335837","latitude":"36.719732"},
{"id":"658","name":"El Ancer","ar_name":"العنصر","post_code":"18012","wilaya_id":"18","longitude":"6.156704","latitude":"36.800052"},
{"id":"659","name":"Sidi Abdelaziz","ar_name":"سيدي عبد العزيز","post_code":"18013","wilaya_id":"18","longitude":"6.059574","latitude":"36.857264"},
{"id":"660","name":"Kouas","ar_name":"قاوس","post_code":"18014","wilaya_id":"18","longitude":"5.811322","latitude":"36.771323"},
{"id":"661","name":"Ghebala","ar_name":"غبالة","post_code":"18015","wilaya_id":"18","longitude":"6.388185","latitude":"36.628297"},
{"id":"662","name":"Bouraoui Belhadef","ar_name":"بوراوي بلهادف","post_code":"18016","wilaya_id":"18","longitude":"6.101997","latitude":"36.700359"},
{"id":"663","name":"Djimla","ar_name":"جيملة","post_code":"18017","wilaya_id":"18","longitude":"5.751657","latitude":"36.801098"},
{"id":"664","name":"Selma Benziada","ar_name":"سلمى بن زيادة","post_code":"18018","wilaya_id":"18","longitude":"5.657364","latitude":"36.616806"},
{"id":"665","name":"Boussif Ouled Askeur","ar_name":"أولاد عسكر","post_code":"18019","wilaya_id":"18","longitude":"6.017675","latitude":"36.645600"},
{"id":"666","name":"El Kennar Nouchfi","ar_name":"القنار","post_code":"18020","wilaya_id":"18","longitude":"5.970757","latitude":"36.827145"},
{"id":"667","name":"Ouled Yahia Khadrouch","ar_name":"اولاد يحيى","post_code":"18021","wilaya_id":"18","longitude":"6.200596","latitude":"36.711108"},
{"id":"668","name":"Boudria Beniyadjis","ar_name":"بودريعة بن ياجيس","post_code":"18022","wilaya_id":"18","longitude":"5.808556","latitude":"36.598915"},
{"id":"669","name":"Khiri Oued Adjoul","ar_name":"بني بلعيد","post_code":"18023","wilaya_id":"18","longitude":"6.134187","latitude":"36.882351"},
{"id":"670","name":"Texena","ar_name":"تاكسنة","post_code":"18024","wilaya_id":"18","longitude":"5.788704","latitude":"36.659857"},
{"id":"671","name":"Djemaa Beni Habibi","ar_name":"الجمعة بني حبيبي","post_code":"18025","wilaya_id":"18","longitude":"6.125838","latitude":"36.809406"},
{"id":"672","name":"Bordj Tahar","ar_name":"برج الطهر","post_code":"18026","wilaya_id":"18","longitude":"6.031700","latitude":"36.748769"},
{"id":"673","name":"Ouled Rabah","ar_name":"ولاد رابح","post_code":"18027","wilaya_id":"18","longitude":"6.185264","latitude":"36.604801"},
{"id":"674","name":"Oudjana","ar_name":"وجانة","post_code":"18028","wilaya_id":"18","longitude":"5.895910","latitude":"36.712888"},
{"id":"675","name":"Setif","ar_name":"سطيف‎","post_code":"19001","wilaya_id":"19","longitude":"5.410798","latitude":"36.189759"},
{"id":"676","name":"Ain El Kebira","ar_name":"عين الكبيرة","post_code":"19002","wilaya_id":"19","longitude":"5.507511","latitude":"36.369568"},
{"id":"677","name":"Beni Aziz","ar_name":"بني عزيز","post_code":"19003","wilaya_id":"19","longitude":"5.647044","latitude":"36.464288"},
{"id":"678","name":"Ouled Si Ahmed","ar_name":"أولاد سي أحمد","post_code":"19004","wilaya_id":"19","longitude":"5.728770","latitude":"36.420425"},
{"id":"679","name":"Boutaleb","ar_name":"بوطالب","post_code":"19005","wilaya_id":"19","longitude":"5.324284","latitude":"35.668627"},
{"id":"680","name":"Ain Roua","ar_name":"عين الروى","post_code":"19006","wilaya_id":"19","longitude":"5.181919","latitude":"36.333737"},
{"id":"681","name":"Draa Kebila","ar_name":"ذراع قبيلة","post_code":"19007","wilaya_id":"19","longitude":"4.996463","latitude":"36.436495"},
{"id":"682","name":"Bir El Arch","ar_name":"بئر العرش","post_code":"19008","wilaya_id":"19","longitude":"5.839159","latitude":"36.133951"},
{"id":"683","name":"Beni Chebana","ar_name":"بني شبانة","post_code":"19009","wilaya_id":"19","longitude":"4.878207","latitude":"36.472637"},
{"id":"684","name":"Ouled Tebben","ar_name":"أولاد تبــان","post_code":"19010","wilaya_id":"19","longitude":"5.104599","latitude":"35.810935"},
{"id":"685","name":"Hamma","ar_name":"حــامة","post_code":"19011","wilaya_id":"19","longitude":"5.374363","latitude":"35.684248"},
{"id":"686","name":"Maaouia","ar_name":"معـاويـة","post_code":"19012","wilaya_id":"19","longitude":"5.709161","latitude":"36.387465"},
{"id":"687","name":"Ain Legradj","ar_name":"عين لڨراج","post_code":"19013","wilaya_id":"19","longitude":"4.892304","latitude":"36.408619"},
{"id":"688","name":"Ain Abessa","ar_name":"عين عباسـة","post_code":"19014","wilaya_id":"19","longitude":"5.292619","latitude":"36.296471"},
{"id":"689","name":"Dehamcha","ar_name":"الدهامشة","post_code":"19015","wilaya_id":"19","longitude":"5.591986","latitude":"36.383958"},
{"id":"690","name":"Babor","ar_name":"بابور","post_code":"19016","wilaya_id":"19","longitude":"5.535168","latitude":"36.489801"},
{"id":"691","name":"Guidjel","ar_name":"قجــال","post_code":"19017","wilaya_id":"19","longitude":"5.530678","latitude":"36.118604"},
{"id":"692","name":"Ain Lahdjar","ar_name":"عين لحجـر","post_code":"19018","wilaya_id":"19","longitude":"5.536656","latitude":"35.937860"},
{"id":"693","name":"Bousselam","ar_name":"بوسلام","post_code":"19019","wilaya_id":"19","longitude":"5.040196","latitude":"36.497328"},
{"id":"694","name":"El Eulma","ar_name":"العلمة","post_code":"19020","wilaya_id":"19","longitude":"5.699946","latitude":"36.150510"},
{"id":"695","name":"Djemila","ar_name":"جميلـة","post_code":"19021","wilaya_id":"19","longitude":"5.743570","latitude":"36.343290"},
{"id":"696","name":"Beni Ouartilane","ar_name":"بني ورتيلان","post_code":"19022","wilaya_id":"19","longitude":"4.850557","latitude":"36.441325"},
{"id":"697","name":"Rosfa","ar_name":"الرصفة","post_code":"19023","wilaya_id":"19","longitude":"5.265868","latitude":"35.811933"},
{"id":"698","name":"Ouled Addouane","ar_name":"أولاد عدوان","post_code":"19024","wilaya_id":"19","longitude":"5.437843","latitude":"36.336301"},
{"id":"699","name":"Bellaa","ar_name":"البلاعة","post_code":"19025","wilaya_id":"19","longitude":"5.854070","latitude":"36.202564"},
{"id":"700","name":"Ain Arnat","ar_name":"عين أرنـات","post_code":"19026","wilaya_id":"19","longitude":"5.313721","latitude":"36.185058"},
{"id":"701","name":"Amoucha","ar_name":"عموشة","post_code":"19027","wilaya_id":"19","longitude":"5.411062","latitude":"36.387944"},
{"id":"702","name":"Ain Oulmane","ar_name":"عين ولمان","post_code":"19028","wilaya_id":"19","longitude":"5.297253","latitude":"35.919792"},
{"id":"703","name":"Beidha Bordj","ar_name":"بيضاء برج","post_code":"19029","wilaya_id":"19","longitude":"5.664062","latitude":"35.890331"},
{"id":"704","name":"Bouandas","ar_name":"بوعنداس","post_code":"19030","wilaya_id":"19","longitude":"5.111941","latitude":"36.510928"},
{"id":"705","name":"Bazer Sakra","ar_name":"بازر الصخرة","post_code":"19031","wilaya_id":"19","longitude":"5.674200","latitude":"36.113260"},
{"id":"706","name":"Hamam Soukhna","ar_name":"حمــام السخنة","post_code":"19032","wilaya_id":"19","longitude":"5.809391","latitude":"35.976992"},
{"id":"707","name":"Mezloug","ar_name":"مزلوق","post_code":"19033","wilaya_id":"19","longitude":"5.337274","latitude":"36.108406"},
{"id":"708","name":"Bir Haddada","ar_name":"بئر حدادة","post_code":"19034","wilaya_id":"19","longitude":"5.427500","latitude":"35.963447"},
{"id":"709","name":"Serdj El Ghoul","ar_name":"سرج الغول","post_code":"19035","wilaya_id":"19","longitude":"5.578647","latitude":"36.477515"},
{"id":"710","name":"Harbil","ar_name":"حربيل","post_code":"19036","wilaya_id":"19","longitude":"4.914997","latitude":"36.326820"},
{"id":"711","name":"El Ouricia","ar_name":"الأورسية","post_code":"19037","wilaya_id":"19","longitude":"5.409501","latitude":"36.283878"},
{"id":"712","name":"Tizi N'bechar","ar_name":"تيزي نبشار","post_code":"19038","wilaya_id":"19","longitude":"5.356826","latitude":"36.431792"},
{"id":"713","name":"Salah Bey","ar_name":"صـالح باي","post_code":"19039","wilaya_id":"19","longitude":"5.292918","latitude":"35.856825"},
{"id":"714","name":"Ain Azel","ar_name":"عين أزال","post_code":"19040","wilaya_id":"19","longitude":"5.510552","latitude":"35.820175"},
{"id":"715","name":"Guenzet","ar_name":"ڨنزات","post_code":"19041","wilaya_id":"19","longitude":"4.836773","latitude":"36.319315"},
{"id":"716","name":"Tala Ifacene","ar_name":"تالة إيفاسن","post_code":"19042","wilaya_id":"19","longitude":"5.737806","latitude":"35.950980"},
{"id":"717","name":"Bougaa","ar_name":"بوقاعـة","post_code":"19043","wilaya_id":"19","longitude":"5.089846","latitude":"36.333092"},
{"id":"718","name":"Beni Fouda","ar_name":"بني فودة","post_code":"19044","wilaya_id":"19","longitude":"5.608222","latitude":"36.285895"},
{"id":"719","name":"Tachouda","ar_name":"تاشودة","post_code":"19045","wilaya_id":"19","longitude":"5.714021","latitude":"36.262362"},
{"id":"720","name":"Beni Mouhli","ar_name":"إيث موحلي","post_code":"19046","wilaya_id":"19","longitude":"4.909444","latitude":"36.516444"},
{"id":"721","name":"Ouled Sabor","ar_name":"أولاد صـابر","post_code":"19047","wilaya_id":"19","longitude":"5.511352","latitude":"36.199232"},
{"id":"722","name":"Guellal","ar_name":"قلال","post_code":"19048","wilaya_id":"19","longitude":"5.338323","latitude":"36.034955"},
{"id":"723","name":"Ain Sebt","ar_name":"عين السبت","post_code":"19049","wilaya_id":"19","longitude":"5.711046","latitude":"36.485047"},
{"id":"724","name":"Hammam Guergour","ar_name":"حمام قرقور","post_code":"19050","wilaya_id":"19","longitude":"5.054946","latitude":"36.323501"},
{"id":"725","name":"Ait Naoual Mezada","ar_name":"آيت نوال مزادة","post_code":"19051","wilaya_id":"19","longitude":"5.083382","latitude":"36.545287"},
{"id":"726","name":"Ksar El Abtal","ar_name":"قصرالأبطال","post_code":"19052","wilaya_id":"19","longitude":"5.266373","latitude":"35.971818"},
{"id":"727","name":"Beni Oussine","ar_name":"بني حسين","post_code":"19053","wilaya_id":"19","longitude":"5.114391","latitude":"36.250980"},
{"id":"728","name":"Ait Tizi","ar_name":"آيت تيزي","post_code":"19054","wilaya_id":"19","longitude":"5.128274","latitude":"36.558505"},
{"id":"729","name":"Maouaklane","ar_name":"موكلان","post_code":"19055","wilaya_id":"19","longitude":"5.074423","latitude":"36.396376"},
{"id":"730","name":"Guelta Zerka","ar_name":"القلتة الزرقاء","post_code":"19056","wilaya_id":"19","longitude":"5.683744","latitude":"36.210378"},
{"id":"731","name":"Oued El Barad","ar_name":"واد البارد","post_code":"19057","wilaya_id":"19","longitude":"5.402586","latitude":"36.476742"},
{"id":"732","name":"Taya","ar_name":"طاية","post_code":"19058","wilaya_id":"19","longitude":"5.966212","latitude":"35.958930"},
{"id":"733","name":"El Ouldja","ar_name":"الولجـة","post_code":"19059","wilaya_id":"19","longitude":"5.913246","latitude":"36.078278"},